Time,header.seq,header.stamp.secs,header.stamp.nsecs,header.frame_id,x,y,z,roll,pitch,yaw,vx_w,vy_w,vz_w,v_tot,ax_w,ay_w,az_w,vx_b,vy_b,vz_b,ax_b,ay_b,az_b,droll,dpitch,dyaw,steer
1709637585.3039215,2,1709637585,303921461,,-1.2364775802201526,-0.09882959698370104,0.0,0.0,0.0,-2.043627375091104,-0.02406080986458002,-0.04727080318503067,0.0,0.05304197776381813,0.0,0.0,0.0,0.053041870629635675,0.00010660772190170495,0.0,0.0,0.0,0.0,0.0,0.0,0.001380046800485076,0.0
1709637585.3241756,3,1709637585,314086199,,-1.2398087578479988,-0.103490250895484,0.0,0.0,0.0,-2.0491335399471717,-0.046930931119731255,-0.09023051810617898,0.0,0.10170574562665793,0.0,0.0,0.0,0.10170566249483755,-0.00013003830452833564,0.0,0.0,0.0,0.0,0.0,0.0,-0.0007264578325050113,0.0
1709637585.3747654,4,1709637585,377589464,,-1.2529857283586705,-0.12891140512709887,0.0,0.0,0.0,-2.0389122655042624,-0.1492018482419626,-0.31670771891055455,0.0,0.35009280303420187,0.0,0.0,0.0,0.34995701962479153,0.00974962315567775,0.0,0.0,0.0,0.0,0.0,0.0,0.2062673900989818,0.0
1709637585.3747654,5,1709637585,377589464,,-1.2540409795566065,-0.1309454745946059,0.0,0.0,0.0,-2.0365987299446227,-0.16336465053798432,-0.3429405757281415,0.0,0.37986345905620733,0.0,0.0,0.0,0.3797777648196399,0.008068263428101453,0.0,0.0,0.0,0.0,0.0,0.0,0.23172930996624883,0.0
1709637585.394958,6,1709637585,384852886,,-1.2549214641201145,-0.13375982620167245,0.0,0.0,0.0,-2.0343273863345037,-0.1627093645426109,-0.348319905858349,0.0,0.3844490787178835,0.0,0.0,0.0,0.38431382596131014,0.010196926105901017,0.0,0.0,0.0,0.0,0.0,0.0,0.23068621301179978,0.0
1709637585.4050524,7,1709637585,394958019,,-1.2565662138011569,-0.137301245267974,0.0,0.0,0.0,-2.032002006474756,-0.16298609335752065,-0.3525100688219095,0.0,0.38836556908249964,0.0,0.0,0.0,0.3882120111449049,0.010920148881861583,0.0,0.0,0.0,0.0,0.0,0.0,0.23009066470475958,0.0
1709637585.4050524,8,1709637585,405052423,,-1.2582150470903424,-0.14087958985056423,0.0,0.0,0.0,-2.029673644574785,-0.1637158977657049,-0.35645229389903205,0.0,0.3922513645701091,0.0,0.0,0.0,0.39209404904570977,0.011108092097799836,0.0,0.0,0.0,0.0,0.0,0.0,0.23138628183451734,0.0
1709637585.4252148,9,1709637585,415130615,,-1.2622151941398514,-0.14945038415637682,0.0,0.0,0.0,-2.0221484460918346,-0.18415856679627385,-0.4086869261666087,0.0,0.4482626254150224,0.0,0.0,0.0,0.4480870343206261,0.012545557688470757,0.0,0.0,0.0,0.0,0.0,0.0,0.26453577522596305,0.0
1709637585.4454153,10,1709637585,425214767,,-1.2661480413168218,-0.15729483309127928,0.0,0.0,0.0,-2.0158810597939167,-0.19814362147287112,-0.44685232308025963,0.0,0.48881273855394686,0.0,0.0,0.0,0.48862500992786867,0.013545960490103644,0.0,0.0,0.0,0.0,0.0,0.0,0.28812730238317324,0.0
1709637585.4655952,11,1709637585,445415258,,-1.2702533178500823,-0.16664375436602594,0.0,0.0,0.0,-2.0084397363464843,-0.19923741822529506,-0.45836539242259944,0.0,0.4997943394955617,0.0,0.0,0.0,0.499603834457459,0.013798202318007357,0.0,0.0,0.0,0.0,0.0,0.0,0.29414569264993984,0.0
1709637585.475695,12,1709637585,455506325,,-1.272345590193865,-0.17283868211468237,0.0,0.0,0.0,-2.0008018660669125,-0.20314536173226616,-0.477098234876708,0.0,0.5185467806435633,0.0,0.0,0.0,0.5183512458225248,0.014239019279437107,0.0,0.0,0.0,0.0,0.0,0.0,0.30511694587417193,0.0
1709637585.4857752,13,1709637585,480088711,,-1.2766114687242263,-0.1847323562821772,0.0,0.0,0.0,-1.9877369220036925,-0.2027666308431595,-0.49384011507153536,0.0,0.5338467625052656,0.0,0.0,0.0,0.5336473006154128,0.01459192870174086,0.0,0.0,0.0,0.0,0.0,0.0,0.3140086759016388,0.0
1709637585.495914,14,1709637585,485775232,,-1.2777639332837412,-0.1875462847372777,0.0,0.0,0.0,-1.9859483666301443,-0.20256330540195458,-0.49584298070732363,0.0,0.5356231457023574,0.0,0.0,0.0,0.5354232706972594,0.014631316001580894,0.0,0.0,0.0,0.0,0.0,0.0,0.3150420646112795,0.0
1709637585.5060015,15,1709637585,495913982,,-1.279815714820342,-0.1925915862795419,0.0,0.0,0.0,-1.9827448996720891,-0.20217096538982512,-0.49940657421458184,0.0,0.5387764152367831,0.0,0.0,0.0,0.5385757747080757,0.01470239820554984,0.0,0.0,0.0,0.0,0.0,0.0,0.31688274247828174,0.0
1709637585.5160894,16,1709637585,506001472,,-1.281988215470569,-0.19752116513383455,0.0,0.0,0.0,-1.9757716725842218,-0.20194486110826176,-0.5089148605513343,0.0,0.5475180930508315,0.0,0.0,0.0,0.5473152996496196,0.014900502926619198,0.0,0.0,0.0,0.0,0.0,0.0,0.32201239857510233,0.0
1709637585.5261724,17,1709637585,528010845,,-1.2863672231119387,-0.20911848998034865,0.0,0.0,0.0,-1.9669196131645459,-0.2011133878293453,-0.5200688428685137,0.0,0.5576003910389513,0.0,0.0,0.0,0.5573951946465756,0.015125907301629382,0.0,0.0,0.0,0.0,0.0,0.0,0.3279274517509496,0.0
1709637585.5362623,18,1709637585,531342268,,-1.28703687527914,-0.21085297168556486,0.0,0.0,0.0,-1.9658261736591949,-0.20090767422518147,-0.5212167999312876,0.0,0.5585972127509978,0.0,0.0,0.0,0.5583917819876347,0.015148065944448275,0.0,0.0,0.0,0.0,0.0,0.0,0.32851232411896303,0.0
1709637585.5463946,19,1709637585,536262274,,-1.2861688792946573,-0.21147104755385063,0.0,0.0,0.0,-1.9629797094639676,-0.19742809863567348,-0.5166050878980982,0.0,0.5530449086404278,0.0,0.0,0.0,0.5528411443728065,0.01501133110902419,0.0,0.0,0.0,0.0,0.0,0.0,0.3250685639502921,0.0
1709637585.5565152,20,1709637585,548088789,,-1.2893360299869059,-0.21819868071448834,0.0,0.0,0.0,-1.9545878722059626,-0.19786118403074968,-0.5304266822683479,0.0,0.5661285308198635,0.0,0.0,0.0,0.5659259088362987,0.015145267117697231,0.0,0.0,0.0,0.0,0.0,0.0,0.3304210966649934,0.0
1709637585.5666027,21,1709637585,559296846,,-1.2915496749572801,-0.22416583825921213,0.0,0.0,0.0,-1.9508802516466526,-0.1971343049117268,-0.5343702872560783,0.0,0.5695731191648472,0.0,0.0,0.0,0.569370664598716,0.015185004760938951,0.0,0.0,0.0,0.0,0.0,0.0,0.3312975009049583,0.0
1709637585.5666027,22,1709637585,566602707,,-1.2929880584979123,-0.22807924723453837,0.0,0.0,0.0,-1.9484567479297115,-0.19662326893000237,-0.5369355147873472,0.0,0.5718045618256938,0.0,0.0,0.0,0.5716018062151946,0.015226032188354773,0.0,0.0,0.0,0.0,0.0,0.0,0.3321726079094804,0.0
1709637585.5768828,23,1709637585,576882839,,-1.2936934733697962,-0.23234593621131525,0.0,0.0,0.0,-1.9421940826463997,-0.19399332515163195,-0.5401638805207019,0.0,0.5739428787105645,0.0,0.0,0.0,0.5737397561399368,0.015268275837684704,0.0,0.0,0.0,0.0,0.0,0.0,0.3330585753955268,0.0
1709637585.5768828,24,1709637585,576882839,,-1.2936934733697962,-0.23234593621131525,0.0,0.0,0.0,-1.9421940826463997,-0.19399332515163195,-0.5401638805207019,0.0,0.5739428787105645,0.0,0.0,0.0,0.5737397561399368,0.015268275837684704,0.0,0.0,0.0,0.0,0.0,0.0,0.3330585753955268,0.0
1709637585.587156,25,1709637585,587156057,,-1.2956823457459226,-0.23791357785682485,0.0,0.0,0.0,-1.9387643178698395,-0.19319578668707185,-0.5437476661298223,0.0,0.5770495095009311,0.0,0.0,0.0,0.5768457452259508,0.015333708944111317,0.0,0.0,0.0,0.0,0.0,0.0,0.33466858386182813,0.0
1709637585.5972478,26,1709637585,587156057,,-1.2956823457459226,-0.23791357785682485,0.0,0.0,0.0,-1.9387643178698395,-0.19319578668707185,-0.5437476661298223,0.0,0.5770495095009311,0.0,0.0,0.0,0.5768457452259508,0.015333708944111317,0.0,0.0,0.0,0.0,0.0,0.0,0.33466858386182813,0.0
1709637585.6073482,27,1709637585,597247839,,-1.297627923868312,-0.24341866816619873,0.0,0.0,0.0,-1.9353786068483765,-0.1923747815486796,-0.5472547634383482,0.0,0.5800826084980178,0.0,0.0,0.0,0.5798782031811824,0.01539812187339458,0.0,0.0,0.0,0.0,0.0,0.0,0.3363234458679186,0.0
1709637585.6073482,28,1709637585,597988605,,-1.2944627827013193,-0.24027376614973836,0.0,0.0,0.0,-1.934317177209239,-0.18831778932834145,-0.537699501600315,0.0,0.5697230413093196,0.0,0.0,0.0,0.5695208548378506,0.015176946448629124,0.0,0.0,0.0,0.0,0.0,0.0,0.3303138563773592,0.0
1709637585.6174436,29,1709637585,607348204,,-1.2972548171607952,-0.24446885122168394,0.0,0.0,0.0,-1.92979669709172,-0.18705374108347828,-0.5418721181667884,0.0,0.5732490684683985,0.0,0.0,0.0,0.5730461398706195,0.015251756596179415,0.0,0.0,0.0,0.0,0.0,0.0,0.33230899235742506,0.0
1709637585.6376555,30,1709637585,617443562,,-1.298028425384031,-0.2490419452488494,0.0,0.0,0.0,-1.9246136118910915,-0.18498811061499304,-0.5449932790514581,0.0,0.5755330357852322,0.0,0.0,0.0,0.5753296180047366,0.015300520471187132,0.0,0.0,0.0,0.0,0.0,0.0,0.33360256083436973,0.0
1709637585.6478336,31,1709637585,639699459,,-1.3025779717461958,-0.26145404454688487,0.0,0.0,0.0,-1.9100159414377715,-0.18185665252983396,-0.5623528417766994,0.0,0.5910267005167248,0.0,0.0,0.0,0.5908199889359748,0.015630143869491454,0.0,0.0,0.0,0.0,0.0,0.0,0.3425433511724776,0.0
1709637585.6478336,32,1709637585,647833586,,-1.3040538462678846,-0.26603955186680495,0.0,0.0,0.0,-1.9072240662888864,-0.1810239186433079,-0.5651194120527783,0.0,0.5934050968772149,0.0,0.0,0.0,0.5931979001233882,0.015679932686699333,0.0,0.0,0.0,0.0,0.0,0.0,0.34391551927649794,0.0
1709637585.6681044,33,1709637585,661455631,,-1.3070632721371522,-0.27344350822487473,0.0,0.0,0.0,-1.9008823130833108,-0.17909658570707535,-0.5714532320985783,0.0,0.5988609049586084,0.0,0.0,0.0,0.5986525990683778,0.01579395822837212,0.0,0.0,0.0,0.0,0.0,0.0,0.3470682546079343,0.0
1709637585.6782644,34,1709637585,668104410,,-1.3074745397634338,-0.2767348786246986,0.0,0.0,0.0,-1.8950778407630566,-0.17701879060472847,-0.5764497674976599,0.0,0.6030174016355306,0.0,0.0,0.0,0.6028082614377622,0.01588038468203101,0.0,0.0,0.0,0.0,0.0,0.0,0.34947182959884615,0.0
1709637585.6782644,35,1709637585,678264380,,-1.309266996481279,-0.2826088381788399,0.0,0.0,0.0,-1.8915187062794403,-0.17582192991439227,-0.5798424194225271,0.0,0.6059130155398473,0.0,0.0,0.0,0.6057033043732116,0.015940184188517965,0.0,0.0,0.0,0.0,0.0,0.0,0.3511456632927323,0.0
1709637585.698657,36,1709637585,688577175,,-1.3089786320770995,-0.2865107272258954,0.0,0.0,0.0,-1.8860435890718223,-0.17264252010987857,-0.5807897651455961,0.0,0.6059060909479014,0.0,0.0,0.0,0.6056963791007185,0.0159401189470222,0.0,0.0,0.0,0.0,0.0,0.0,0.3511410381560262,0.0
1709637585.698657,37,1709637585,698657036,,-1.3111662111359141,-0.29210190018477517,0.0,0.0,0.0,-1.8804989812300346,-0.17072060579915782,-0.5861112724255754,0.0,0.6104686305689739,0.0,0.0,0.0,0.6102580302194491,0.016033884789293792,0.0,0.0,0.0,0.0,0.0,0.0,0.3537796528721944,0.0
1709637585.7087474,38,1709637585,708747387,,-1.3123311266860676,-0.29772649283716374,0.0,0.0,0.0,-1.8753683918575386,-0.16869757992317383,-0.5903570455189489,0.0,0.6139872267936832,0.0,0.0,0.0,0.6137759491821658,0.016105864501145078,0.0,0.0,0.0,0.0,0.0,0.0,0.355814458163661,0.0
1709637585.7188554,39,1709637585,711637259,,-1.31339153056269,-0.2990051586021123,0.0,0.0,0.0,-1.873054574089526,-0.16777726626069844,-0.5922863643529414,0.0,0.6155910561991123,0.0,0.0,0.0,0.6153794725592183,0.01613856329035491,0.0,0.0,0.0,0.0,0.0,0.0,0.35674198385392264,0.0
1709637585.7289462,40,1709637585,718855381,,-1.3140163958007238,-0.30303299065841044,0.0,0.0,0.0,-1.868049417292334,-0.1657823252760804,-0.5965371231755446,0.0,0.6191448285340829,0.0,0.0,0.0,0.6189325724860554,0.016210780866226553,0.0,0.0,0.0,0.0,0.0,0.0,0.3587971589041044,0.0
1709637585.739034,41,1709637585,728946209,,-1.315915549084904,-0.30901785919557634,0.0,0.0,0.0,-1.8627337272653581,-0.16376572628237349,-0.6015614128832226,0.0,0.6234543660724916,0.0,0.0,0.0,0.6232413077598284,0.016297818156770536,0.0,0.0,0.0,0.0,0.0,0.0,0.36128923506994326,0.0
1709637585.7491152,42,1709637585,739033937,,-1.3175601887395625,-0.31510262583808607,0.0,0.0,0.0,-1.8590811154804767,-0.16229572447916496,-0.6048058123392416,0.0,0.6262028208364658,0.0,0.0,0.0,0.6259892587472685,0.016353004512696626,0.0,0.0,0.0,0.0,0.0,0.0,0.3628784197466644,0.0
1709637585.769297,43,1709637585,761714697,,-1.3188750255886783,-0.32433975847388963,0.0,0.0,0.0,-1.8476964686930129,-0.15577276125682604,-0.6080341739843234,0.0,0.6276708611066588,0.0,0.0,0.0,0.6274570299658118,0.016382473221615377,0.0,0.0,0.0,0.0,0.0,0.0,0.3637273251532303,0.0
1709637585.7895718,44,1709637585,771317244,,-1.3175742620473858,-0.3272745481108213,0.0,0.0,0.0,-1.8426601167680445,-0.15243562857975468,-0.6077512214347287,0.0,0.6265765460148581,0.0,0.0,0.0,0.6263629085427261,0.016360770697192124,0.0,0.0,0.0,0.0,0.0,0.0,0.3630948175384292,0.0
1709637585.7895718,45,1709637585,779408932,,-1.3188027818404189,-0.3322030997478279,0.0,0.0,0.0,-1.8397167433248827,-0.15121045458015434,-0.6104231484026561,0.0,0.6288728183664389,0.0,0.0,0.0,0.6286587269825048,0.016408128134695714,0.0,0.0,0.0,0.0,0.0,0.0,0.3644104788649518,0.0
1709637585.7895718,46,1709637585,789571762,,-1.3221149599941204,-0.3369168823070734,0.0,0.0,0.0,-1.8343646408441654,-0.14861832981306472,-0.6139501615981815,0.0,0.6316820473013762,0.0,0.0,0.0,0.6314674343871541,0.016464756037160643,0.0,0.0,0.0,0.0,0.0,0.0,0.3660260290020162,0.0
1709637585.7996693,47,1709637585,789571762,,-1.3204757690346287,-0.3344758107353177,0.0,0.0,0.0,-1.8313304775178523,-0.14643739906322195,-0.6131048578853642,0.0,0.6303502824676402,0.0,0.0,0.0,0.6301359069448704,0.016438290233459617,0.0,0.0,0.0,0.0,0.0,0.0,0.3652562385988398,0.0
1709637585.7996693,48,1709637585,799669266,,-1.3219463695344318,-0.3406833039082984,0.0,0.0,0.0,-1.8276340299474843,-0.14483654316108135,-0.6164024859153928,0.0,0.6331900574689465,0.0,0.0,0.0,0.632975170050688,0.016494937915320845,0.0,0.0,0.0,0.0,0.0,0.0,0.3668932427210728,0.0
1709637585.8097548,49,1709637585,799669266,,-1.3219463695344318,-0.3406833039082984,0.0,0.0,0.0,-1.8276340299474843,-0.14483654316108135,-0.6164024859153928,0.0,0.6331900574689465,0.0,0.0,0.0,0.632975170050688,0.016494937915320845,0.0,0.0,0.0,0.0,0.0,0.0,0.3668932427210728,0.0
1709637585.8198433,50,1709637585,811675072,,-1.3228724280178572,-0.3468008244914906,0.0,0.0,0.0,-1.8179431273900262,-0.14005965205339574,-0.6229783624815188,0.0,0.6385285790420605,0.0,0.0,0.0,0.6383127492801556,0.0166006132381354,0.0,0.0,0.0,0.0,0.0,0.0,0.36997648419727697,0.0
1709637585.8198433,51,1709637585,821583033,,-1.3242518284145544,-0.352989026988789,0.0,0.0,0.0,-1.8142695801792768,-0.13837737105499526,-0.6261559867534947,0.0,0.6412640770909708,0.0,0.0,0.0,0.6410477746426547,0.016654344569350672,0.0,0.0,0.0,0.0,0.0,0.0,0.37155642269811695,0.0
1709637585.8400726,52,1709637585,830001354,,-1.3254106195871178,-0.35827152137127627,0.0,0.0,0.0,-1.8111360747320595,-0.13692062928831583,-0.6288411764178047,0.0,0.6435747694582479,0.0,0.0,0.0,0.6433580714847348,0.01669957300890668,0.0,0.0,0.0,0.0,0.0,0.0,0.37289140234286444,0.0
1709637585.8501554,53,1709637585,840072632,,-1.3284805865385136,-0.363371364883392,0.0,0.0,0.0,-1.805901857495119,-0.13422374322428973,-0.6322726522898351,0.0,0.6463626846274179,0.0,0.0,0.0,0.6461455146278211,0.016753925065817032,0.0,0.0,0.0,0.0,0.0,0.0,0.37450238698879484,0.0
1709637585.8602748,54,1709637585,850155354,,-1.3270475469678187,-0.36651504092315007,0.0,0.0,0.0,-1.8008522819666475,-0.1308980380453997,-0.6323287818570292,0.0,0.6457352280377224,0.0,0.0,0.0,0.6455181602555937,0.016741849036562922,0.0,0.0,0.0,0.0,0.0,0.0,0.3741395529811251,0.0
1709637585.8805664,55,1709637585,860274792,,-1.3288375565251171,-0.37262736585054423,0.0,0.0,0.0,-1.795304422401708,-0.12813362002071665,-0.6366293973016485,0.0,0.649396037937,0.0,0.0,0.0,0.6491783595561942,0.016812839504440992,0.0,0.0,0.0,0.0,0.0,0.0,0.3762552891271974,0.0
1709637585.8805664,56,1709637585,870363235,,-1.3301207752052053,-0.37906583765139357,0.0,0.0,0.0,-1.7915006682547407,-0.1262542394446438,-0.6397725576224306,0.0,0.6521112316656504,0.0,0.0,0.0,0.6518931049985205,0.016865293352905715,0.0,0.0,0.0,0.0,0.0,0.0,0.37782446068928877,0.0
1709637585.8906534,57,1709637585,880566359,,-1.328162594088484,-0.38217978542161507,0.0,0.0,0.0,-1.7859165727388977,-0.12260846419088811,-0.6401086546659845,0.0,0.6517452917126022,0.0,0.0,0.0,0.6515272234268217,0.016858303689318677,0.0,0.0,0.0,0.0,0.0,0.0,0.3776130862263849,0.0
1709637585.9007924,58,1709637585,890653372,,-1.3313121665711465,-0.38709856007109283,0.0,0.0,0.0,-1.7803555062032672,-0.11954117062866959,-0.6433461304132504,0.0,0.6543579563151775,0.0,0.0,0.0,0.6541394620642326,0.016908552962691073,0.0,0.0,0.0,0.0,0.0,0.0,0.37912298446620835,0.0
1709637585.9108772,59,1709637585,900792360,,-1.3307408538298287,-0.3911821969519674,0.0,0.0,0.0,-1.7711940565111801,-0.1141961753798402,-0.6474371934350036,0.0,0.6574311263656274,0.0,0.0,0.0,0.6572121358006914,0.016967453275936635,0.0,0.0,0.0,0.0,0.0,0.0,0.3808990586914108,0.0
1709637585.931056,60,1709637585,923301935,,-1.3331170779724484,-0.4060609130974205,0.0,0.0,0.0,-1.760808884436599,-0.1102803439880131,-0.6554442725823659,0.0,0.6646570158594138,0.0,0.0,0.0,0.6644762808831906,0.015499060448440492,0.0,0.0,0.0,0.0,0.0,0.0,0.3650089726160159,0.0
1709637585.941247,61,1709637585,931056023,,-1.3339738022568741,-0.41115140217729007,0.0,0.0,0.0,-1.7580814485138578,-0.11048351351094095,-0.6575645913114785,0.0,0.6667816722918785,0.0,0.0,0.0,0.6666371520602736,0.013881858568705094,0.0,0.0,0.0,0.0,0.0,0.0,0.3400640458508803,0.0
1709637585.941247,62,1709637585,931056023,,-1.3339738022568741,-0.41115140217729007,0.0,0.0,0.0,-1.7580814485138578,-0.11048351351094095,-0.6575645913114785,0.0,0.6667816722918785,0.0,0.0,0.0,0.6666371520602736,0.013881858568705094,0.0,0.0,0.0,0.0,0.0,0.0,0.3400640458508803,0.0
1709637585.9513562,63,1709637585,941246986,,-1.3317102260612121,-0.41437353810902644,0.0,0.0,0.0,-1.7536466027709408,-0.10833806295390107,-0.6576458534680992,0.0,0.6665097182100108,0.0,0.0,0.0,0.666381953719394,0.013049759595925995,0.0,0.0,0.0,0.0,0.0,0.0,0.3176117259546455,0.0
1709637585.9513562,64,1709637585,951356173,,-1.3354465785696141,-0.4188103099549086,0.0,0.0,0.0,-1.7487791407441768,-0.10573373116112733,-0.6601559271555473,0.0,0.6685697196731646,0.0,0.0,0.0,0.6684469173704994,0.012813614701970755,0.0,0.0,0.0,0.0,0.0,0.0,0.3053893626817135,0.0
1709637585.971525,65,1709637585,973318815,,-1.334866075945253,-0.4305230928145589,0.0,0.0,0.0,-1.7336858971351583,-0.09691902082852827,-0.6686276605945896,0.0,0.6756154565361528,0.0,0.0,0.0,0.6754942804525869,0.012795397078488912,0.0,0.0,0.0,0.0,0.0,0.0,0.29544722753963654,0.0
1709637585.971525,66,1709637585,973318815,,-1.334866075945253,-0.4305230928145589,0.0,0.0,0.0,-1.7336858971351583,-0.09691902082852827,-0.6686276605945896,0.0,0.6756154565361528,0.0,0.0,0.0,0.6754942804525869,0.012795397078488912,0.0,0.0,0.0,0.0,0.0,0.0,0.29544722753963654,0.0
1709637585.9816961,67,1709637585,981696129,,-1.335672415083188,-0.43613419774328654,0.0,0.0,0.0,-1.7312168687454854,-0.09558437593324984,-0.6709645915683933,0.0,0.6777387815826166,0.0,0.0,0.0,0.6776175516002488,0.012818339376600152,0.0,0.0,0.0,0.0,0.0,0.0,0.2941636802101337,0.0
1709637585.991849,68,1709637585,981696129,,-1.335672415083188,-0.43613419774328654,0.0,0.0,0.0,-1.7312168687454854,-0.09558437593324984,-0.6709645915683933,0.0,0.6777387815826166,0.0,0.0,0.0,0.6776175516002488,0.012818339376600152,0.0,0.0,0.0,0.0,0.0,0.0,0.2941636802101337,0.0
1709637586.0019336,69,1709637585,991848946,,-1.3386355638836258,-0.441424576770284,0.0,0.0,0.0,-1.7257020520371953,-0.09226696261788664,-0.6741670945728014,0.0,0.6804516616156236,0.0,0.0,0.0,0.680330260695576,0.012853022109711152,0.0,0.0,0.0,0.0,0.0,0.0,0.29366681419847457,0.0
1709637586.0019336,70,1709637586,1933575,,-1.3385703453543507,-0.44733128123998334,0.0,0.0,0.0,-1.7205512211983747,-0.08915510276924371,-0.6772711523250564,0.0,0.6831140798735627,0.0,0.0,0.0,0.682992479017054,0.012888744222898934,0.0,0.0,0.0,0.0,0.0,0.0,0.29382217523128656,0.0
1709637586.0120165,71,1709637586,12016535,,-1.3397858004164704,-0.45399285029130465,0.0,0.0,0.0,-1.7153097636954031,-0.086165440606975,-0.6810359168893246,0.0,0.6864651507893734,0.0,0.0,0.0,0.6863456295555844,0.012809373061381036,0.0,0.0,0.0,0.0,0.0,0.0,0.2933903314841743,0.0
1709637586.0220928,72,1709637586,17397165,,-1.3378140009405328,-0.45515991147368706,0.0,0.0,0.0,-1.7113759695301707,-0.08345515912231705,-0.6815629519413635,0.0,0.6866533485268652,0.0,0.0,0.0,0.6865327875020385,0.012866729492666214,0.0,0.0,0.0,0.0,0.0,0.0,0.2935279956376984,0.0
1709637586.0220928,73,1709637586,22092819,,-1.3387639172526162,-0.45796030254366527,0.0,0.0,0.0,-1.707621214554972,-0.08180642739411285,-0.6836732465861329,0.0,0.6885502157872087,0.0,0.0,0.0,0.6884419470350346,0.012210045995911136,0.0,0.0,0.0,0.0,0.0,0.0,0.28620292796388663,0.0
1709637586.0321581,74,1709637586,32158136,,-1.3381000875961175,-0.46351719732382124,0.0,0.0,0.0,-1.7024386017283897,-0.07922079122720621,-0.686308275873616,0.0,0.690865387246517,0.0,0.0,0.0,0.6907688144731253,0.01155111452081393,0.0,0.0,0.0,0.0,0.0,0.0,0.27466625586978877,0.0
1709637586.0321581,75,1709637586,32158136,,-1.3381000875961175,-0.46351719732382124,0.0,0.0,0.0,-1.7024386017283897,-0.07922079122720621,-0.686308275873616,0.0,0.690865387246517,0.0,0.0,0.0,0.6907688144731253,0.01155111452081393,0.0,0.0,0.0,0.0,0.0,0.0,0.27466625586978877,0.0
1709637586.0422807,76,1709637586,42280674,,-1.3388952968782715,-0.4704778049023842,0.0,0.0,0.0,-1.6996957213758133,-0.077859318112267,-0.6889592500241883,0.0,0.6933447350422438,0.0,0.0,0.0,0.6932518733921775,0.011347319024133662,0.0,0.0,0.0,0.0,0.0,0.0,0.267892637046191,0.0
1709637586.0422807,77,1709637586,42280674,,-1.3388952968782715,-0.4704778049023842,0.0,0.0,0.0,-1.6996957213758133,-0.077859318112267,-0.6889592500241883,0.0,0.6933447350422438,0.0,0.0,0.0,0.6932518733921775,0.011347319024133662,0.0,0.0,0.0,0.0,0.0,0.0,0.267892637046191,0.0
1709637586.0523412,78,1709637586,52341223,,-1.340347584496154,-0.4733854216210425,0.0,0.0,0.0,-1.6921430965971302,-0.07289142291937147,-0.6909829205610799,0.0,0.6948169226798744,0.0,0.0,0.0,0.6947252322716272,0.011287501382685779,0.0,0.0,0.0,0.0,0.0,0.0,0.2637368542432131,0.0
1709637586.0624475,79,1709637586,61479807,,-1.3409666325879654,-0.4798146690730437,0.0,0.0,0.0,-1.6869934657215515,-0.0696926053336218,-0.6945508594243214,0.0,0.6980386490483542,0.0,0.0,0.0,0.6979471684988476,0.011300688018551233,0.0,0.0,0.0,0.0,0.0,0.0,0.2623143014641022,0.0
1709637586.0624475,80,1709637586,62447548,,-1.3410340040168878,-0.4804869341471873,0.0,0.0,0.0,-1.686739677562298,-0.06954177998420108,-0.6947982497557291,0.0,0.6982697666568385,0.0,0.0,0.0,0.6981782953361824,0.011301988694833235,0.0,0.0,0.0,0.0,0.0,0.0,0.26218343825669826,0.0
1709637586.0725152,81,1709637586,72515249,,-1.3417261932206233,-0.4874948669429128,0.0,0.0,0.0,-1.6841050665035617,-0.06796209094100744,-0.69735942531807,0.0,0.7006632671155401,0.0,0.0,0.0,0.7005717905933049,0.01132166550968492,0.0,0.0,0.0,0.0,0.0,0.0,0.2613370399303845,0.0
1709637586.0725152,82,1709637586,72515249,,-1.3417261932206233,-0.4874948669429128,0.0,0.0,0.0,-1.6841050665035617,-0.06796209094100744,-0.69735942531807,0.0,0.7006632671155401,0.0,0.0,0.0,0.7005717905933049,0.01132166550968492,0.0,0.0,0.0,0.0,0.0,0.0,0.2613370399303845,0.0
1709637586.0825853,83,1709637586,82585335,,-1.3400425224698551,-0.48975420261535163,0.0,0.0,0.0,-1.675309443830801,-0.06193104082405468,-0.6990365078762534,0.0,0.7017745315707731,0.0,0.0,0.0,0.7016830259653096,0.011332441640909253,0.0,0.0,0.0,0.0,0.0,0.0,0.26068321141751744,0.0
1709637586.0825853,84,1709637586,82585335,,-1.3400425224698551,-0.48975420261535163,0.0,0.0,0.0,-1.675309443830801,-0.06193104082405468,-0.6990365078762534,0.0,0.7017745315707731,0.0,0.0,0.0,0.7016830259653096,0.011332441640909253,0.0,0.0,0.0,0.0,0.0,0.0,0.26068321141751744,0.0
1709637586.0926456,85,1709637586,92645645,,-1.339951314194602,-0.4962506463276366,0.0,0.0,0.0,-1.6706611936278228,-0.05891142452597444,-0.7019069876636674,0.0,0.7043748826234247,0.0,0.0,0.0,0.7042832468973661,0.011361488039295688,0.0,0.0,0.0,0.0,0.0,0.0,0.2610083957841455,0.0
1709637586.0926456,86,1709637586,92645645,,-1.339951314194602,-0.4962506463276366,0.0,0.0,0.0,-1.6706611936278228,-0.05891142452597444,-0.7019069876636674,0.0,0.7043748826234247,0.0,0.0,0.0,0.7042832468973661,0.011361488039295688,0.0,0.0,0.0,0.0,0.0,0.0,0.2610083957841455,0.0
1709637586.1027625,87,1709637586,102762461,,-1.340538964424795,-0.5033643874984063,0.0,0.0,0.0,-1.6680183473333254,-0.05725857684047522,-0.7044098184347118,0.0,0.7067331440713815,0.0,0.0,0.0,0.7066413853416842,0.01138812765144376,0.0,0.0,0.0,0.0,0.0,0.0,0.26148871625345194,0.0
1709637586.1027625,88,1709637586,104010582,,-1.342330909137302,-0.5029577677335566,0.0,0.0,0.0,-1.6647867600340238,-0.05501940802054401,-0.7050430069667836,0.0,0.7071865220235006,0.0,0.0,0.0,0.7070947402498311,0.01139321037806894,0.0,0.0,0.0,0.0,0.0,0.0,0.26162060681965316,0.0
1709637586.1128745,89,1709637586,112874508,,-1.341087366204875,-0.5073793470074021,0.0,0.0,0.0,-1.660162356060325,-0.051875734774743956,-0.7067900947258164,0.0,0.7086912796563453,0.0,0.0,0.0,0.7085994184579752,0.011410259504824475,0.0,0.0,0.0,0.0,0.0,0.0,0.2619729365340029,0.0
1709637586.1128745,90,1709637586,115767717,,-1.3416944152560009,-0.5091019361620863,0.0,0.0,0.0,-1.6563658754210975,-0.049292991326984566,-0.7083360417104433,0.0,0.7100491158926832,0.0,0.0,0.0,0.7099571865993648,0.01142541797466239,0.0,0.0,0.0,0.0,0.0,0.0,0.2624263711965288,0.0
1709637586.122985,91,1709637586,122984886,,-1.3420457633238085,-0.5142204134084797,0.0,0.0,0.0,-1.6544700627020033,-0.04806992423324495,-0.7100791901913905,0.0,0.7117044147387671,0.0,0.0,0.0,0.7116124018839374,0.011443926058155704,0.0,0.0,0.0,0.0,0.0,0.0,0.2629405949844066,0.0
1709637586.122985,92,1709637586,122984886,,-1.3420457633238085,-0.5142204134084797,0.0,0.0,0.0,-1.6544700627020033,-0.04806992423324495,-0.7100791901913905,0.0,0.7117044147387671,0.0,0.0,0.0,0.7116124018839374,0.011443926058155704,0.0,0.0,0.0,0.0,0.0,0.0,0.2629405949844066,0.0
1709637586.1330955,93,1709637586,133095503,,-1.3425230520552782,-0.5214120269289254,0.0,0.0,0.0,-1.6518077563149864,-0.04634027915142378,-0.7125039955511059,0.0,0.7140093592860827,0.0,0.0,0.0,0.7139172322629223,0.011469552134715347,0.0,0.0,0.0,0.0,0.0,0.0,0.26370139504058626,0.0
1709637586.1330955,94,1709637586,135703325,,-1.3398099717250165,-0.5202759450296751,0.0,0.0,0.0,-1.6486987130520745,-0.044082802927834515,-0.7120178685737205,0.0,0.7133812015200837,0.0,0.0,0.0,0.7132891035426557,0.011462698179431923,0.0,0.0,0.0,0.0,0.0,0.0,0.26345241802670505,0.0
1709637586.1431656,95,1709637586,143165588,,-1.3417384609141711,-0.5242949179807014,0.0,0.0,0.0,-1.6437031712332066,-0.040637219405934885,-0.7140351116000814,0.0,0.7151905509714085,0.0,0.0,0.0,0.7150983655192751,0.011482675230452708,0.0,0.0,0.0,0.0,0.0,0.0,0.26408200140411264,0.0
1709637586.1431656,96,1709637586,143165588,,-1.3417384609141711,-0.5242949179807014,0.0,0.0,0.0,-1.6437031712332066,-0.040637219405934885,-0.7140351116000814,0.0,0.7151905509714085,0.0,0.0,0.0,0.7150983655192751,0.011482675230452708,0.0,0.0,0.0,0.0,0.0,0.0,0.26408200140411264,0.0
1709637586.1532621,97,1709637586,153262138,,-1.340830522734899,-0.5302368544593418,0.0,0.0,0.0,-1.638722086957512,-0.037199089293004306,-0.7163179143197557,0.0,0.7172831565146597,0.0,0.0,0.0,0.7171908706159728,0.011505725737079402,0.0,0.0,0.0,0.0,0.0,0.0,0.26481972432351336,0.0
1709637586.1532621,98,1709637586,153262138,,-1.340830522734899,-0.5302368544593418,0.0,0.0,0.0,-1.638722086957512,-0.037199089293004306,-0.7163179143197557,0.0,0.7172831565146597,0.0,0.0,0.0,0.7171908706159728,0.011505725737079402,0.0,0.0,0.0,0.0,0.0,0.0,0.26481972432351336,0.0
1709637586.1633408,99,1709637586,163340807,,-1.3411964237386151,-0.537468255640082,0.0,0.0,0.0,-1.636048970760899,-0.035406748928158066,-0.718670113627244,0.0,0.7195417778632852,0.0,0.0,0.0,0.7194493857533876,0.011530456614143614,0.0,0.0,0.0,0.0,0.0,0.0,0.2656311676519168,0.0
1709637586.1633408,100,1709637586,163340807,,-1.3411964237386151,-0.537468255640082,0.0,0.0,0.0,-1.636048970760899,-0.035406748928158066,-0.718670113627244,0.0,0.7195417778632852,0.0,0.0,0.0,0.7194493857533876,0.011530456614143614,0.0,0.0,0.0,0.0,0.0,0.0,0.2656311676519168,0.0
1709637586.1734092,101,1709637586,173409224,,-1.345238752013558,-0.5419708411458959,0.0,0.0,0.0,-1.63016436487857,-0.03125664494288005,-0.7205064299836769,0.0,0.7211840912699811,0.0,0.0,0.0,0.7210916232080083,0.011548352269826498,0.0,0.0,0.0,0.0,0.0,0.0,0.26622333409153637,0.0
1709637586.1734092,102,1709637586,173409224,,-1.3426183663144107,-0.538732274579932,0.0,0.0,0.0,-1.6282477272465883,-0.029811653349452905,-0.719193145615778,0.0,0.7198107496947691,0.0,0.0,0.0,0.71971834399749,0.011533459570144875,0.0,0.0,0.0,0.0,0.0,0.0,0.2657177145968553,0.0
1709637586.1834798,103,1709637586,183479786,,-1.3430678900362016,-0.5459052784762849,0.0,0.0,0.0,-1.6222355279631078,-0.025614868822350027,-0.722334467619955,0.0,0.7227884923105722,0.0,0.0,0.0,0.7226960603235033,0.011558936347146066,0.0,0.0,0.0,0.0,0.0,0.0,0.2667370579360102,0.0
1709637586.1834798,104,1709637586,183479786,,-1.3430678900362016,-0.5459052784762849,0.0,0.0,0.0,-1.6222355279631078,-0.025614868822350027,-0.722334467619955,0.0,0.7227884923105722,0.0,0.0,0.0,0.7226960603235033,0.011558936347146066,0.0,0.0,0.0,0.0,0.0,0.0,0.2667370579360102,0.0
1709637586.1935472,105,1709637586,193547249,,-1.3433163998060673,-0.5531888595037093,0.0,0.0,0.0,-1.6195459439676494,-0.023751657946490617,-0.7246167778225137,0.0,0.7250059420150219,0.0,0.0,0.0,0.7249133389875422,0.01158736014034376,0.0,0.0,0.0,0.0,0.0,0.0,0.2675729873483279,0.0
1709637586.1935472,106,1709637586,193547249,,-1.3433163998060673,-0.5531888595037093,0.0,0.0,0.0,-1.6195459439676494,-0.023751657946490617,-0.7246167778225137,0.0,0.7250059420150219,0.0,0.0,0.0,0.7249133389875422,0.01158736014034376,0.0,0.0,0.0,0.0,0.0,0.0,0.2675729873483279,0.0
1709637586.2036245,107,1709637586,203624487,,-1.3398876746240287,-0.5564463767195811,0.0,0.0,0.0,-1.6149037429445938,-0.02043078094734386,-0.7251933282823224,0.0,0.7254810681163987,0.0,0.0,0.0,0.7253888806181816,0.011565123034888295,0.0,0.0,0.0,0.0,0.0,0.0,0.26739192903147363,0.0
1709637586.2036245,108,1709637586,203624487,,-1.3398876746240287,-0.5564463767195811,0.0,0.0,0.0,-1.6149037429445938,-0.02043078094734386,-0.7251933282823224,0.0,0.7254810681163987,0.0,0.0,0.0,0.7253888806181816,0.011565123034888295,0.0,0.0,0.0,0.0,0.0,0.0,0.26739192903147363,0.0
1709637586.2136872,109,1709637586,213687181,,-1.3387098815325211,-0.5626955947173227,0.0,0.0,0.0,-1.6098782044611433,-0.018148913951737775,-0.7274591645285683,0.0,0.7276855221414193,0.0,0.0,0.0,0.7276127902481152,0.010288177758109788,0.0,0.0,0.0,0.0,0.0,0.0,0.25173383593322524,0.0
1709637586.2136872,110,1709637586,213687181,,-1.3387098815325211,-0.5626955947173227,0.0,0.0,0.0,-1.6098782044611433,-0.018148913951737775,-0.7274591645285683,0.0,0.7276855221414193,0.0,0.0,0.0,0.7276127902481152,0.010288177758109788,0.0,0.0,0.0,0.0,0.0,0.0,0.25173383593322524,0.0
1709637586.2237635,111,1709637586,223763466,,-1.3388901477231676,-0.5700370606066951,0.0,0.0,0.0,-1.6074394216363184,-0.017475113512362327,-0.729715080970208,0.0,0.7299242967511269,0.0,0.0,0.0,0.7298654345328096,0.009269652736763563,0.0,0.0,0.0,0.0,0.0,0.0,0.23371506581536935,0.0
1709637586.2237635,112,1709637586,223763466,,-1.3388901477231676,-0.5700370606066951,0.0,0.0,0.0,-1.6074394216363184,-0.017475113512362327,-0.729715080970208,0.0,0.7299242967511269,0.0,0.0,0.0,0.7298654345328096,0.009269652736763563,0.0,0.0,0.0,0.0,0.0,0.0,0.23371506581536935,0.0
1709637586.2338295,113,1709637586,233829498,,-1.3363535381929434,-0.5752089239418843,0.0,0.0,0.0,-1.602152339991938,-0.014361731703502058,-0.7315089611107182,0.0,0.7316499296267346,0.0,0.0,0.0,0.7315996337870458,0.00857877412373487,0.0,0.0,0.0,0.0,0.0,0.0,0.2181604120910853,0.0
1709637586.2338295,114,1709637586,233829498,,-1.3400433407305068,-0.5719157138536051,0.0,0.0,0.0,-1.5978014295000729,-0.011166587250978187,-0.7309128145623871,0.0,0.7309981088637262,0.0,0.0,0.0,0.7309478305127575,0.008573460855297895,0.0,0.0,0.0,0.0,0.0,0.0,0.2179418389202133,0.0
1709637586.2439022,115,1709637586,243902206,,-1.3401474497676167,-0.579289092700508,0.0,0.0,0.0,-1.595635365839067,-0.009524158281225412,-0.7331135514683564,0.0,0.7331754148479833,0.0,0.0,0.0,0.733123952294321,0.008686743340657018,0.0,0.0,0.0,0.0,0.0,0.0,0.21262226066687942,0.0
1709637586.2439022,116,1709637586,243902206,,-1.3401474497676167,-0.579289092700508,0.0,0.0,0.0,-1.595635365839067,-0.009524158281225412,-0.7331135514683564,0.0,0.7331754148479833,0.0,0.0,0.0,0.733123952294321,0.008686743340657018,0.0,0.0,0.0,0.0,0.0,0.0,0.21262226066687942,0.0
1709637586.2540267,117,1709637586,254026651,,-1.3402358724300514,-0.5867225466568191,0.0,0.0,0.0,-1.593499659646032,-0.00795080779651315,-0.7352995052559631,0.0,0.7353424901189113,0.0,0.0,0.0,0.735290505850053,0.008743556544930807,0.0,0.0,0.0,0.0,0.0,0.0,0.20956284659637592,0.0
1709637586.2540267,118,1709637586,254026651,,-1.3402358724300514,-0.5867225466568191,0.0,0.0,0.0,-1.593499659646032,-0.00795080779651315,-0.7352995052559631,0.0,0.7353424901189113,0.0,0.0,0.0,0.735290505850053,0.008743556544930807,0.0,0.0,0.0,0.0,0.0,0.0,0.20956284659637592,0.0
1709637586.2741914,119,1709637586,264197350,,-1.3398359098090427,-0.5860076291860096,0.0,0.0,0.0,-1.5853073287955464,-0.0020418437256864187,-0.7348749189569741,0.0,0.7348777555742312,0.0,0.0,0.0,0.7348271774689944,0.008621768424773153,0.0,0.0,0.0,0.0,0.0,0.0,0.20571436396275328,0.0
1709637586.2843325,120,1709637586,274191380,,-1.3392815677973078,-0.5929933072595568,0.0,0.0,0.0,-1.5810031525269628,0.0012102502453436737,-0.7372316935098341,0.0,0.7372326868913467,0.0,0.0,0.0,0.7371809391066025,0.008734851970233248,0.0,0.0,0.0,0.0,0.0,0.0,0.2054970497200304,0.0
1709637586.2843325,121,1709637586,284332514,,-1.3405432897674199,-0.5994296385283081,0.0,0.0,0.0,-1.575242177132211,0.0055012449913131225,-0.7395241465332846,0.0,0.7395446078515057,0.0,0.0,0.0,0.7394923803502216,0.008788993469140204,0.0,0.0,0.0,0.0,0.0,0.0,0.20561340516287974,0.0
1709637586.2843325,122,1709637586,284332514,,-1.3405432897674199,-0.5994296385283081,0.0,0.0,0.0,-1.575242177132211,0.0055012449913131225,-0.7395241465332846,0.0,0.7395446078515057,0.0,0.0,0.0,0.7394923803502216,0.008788993469140204,0.0,0.0,0.0,0.0,0.0,0.0,0.20561340516287974,0.0
1709637586.2843325,123,1709637586,294414997,,-1.3404799622083474,-0.6068964345104446,0.0,0.0,0.0,-1.5731678650629721,0.007060283130402907,-0.7416149935874428,0.0,0.7416486002896414,0.0,0.0,0.0,0.7415961643792796,0.008819029965074733,0.0,0.0,0.0,0.0,0.0,0.0,0.20588031988946776,0.0
1709637586.3145943,124,1709637586,296504736,,-1.337303648357531,-0.6049688157766032,0.0,0.0,0.0,-1.570490230699088,0.008787286684048606,-0.7409109987983351,0.0,0.7409631060637325,0.0,0.0,0.0,0.7409136538426788,0.008560496311854657,0.0,0.0,0.0,0.0,0.0,0.0,0.2029936879738928,0.0
1709637586.3145943,125,1709637586,304495335,,-1.338762446984501,-0.6095957225669933,0.0,0.0,0.0,-1.564606895205795,0.013315892468342966,-0.7426386002156256,0.0,0.7427579710258599,0.0,0.0,0.0,0.7427067926456862,0.00871915594595984,0.0,0.0,0.0,0.0,0.0,0.0,0.20410374851708518,0.0
1709637586.324669,126,1709637586,314594269,,-1.3368560716352145,-0.6153313815271992,0.0,0.0,0.0,-1.5603618303415965,0.016574481761665448,-0.74425854709695,0.0,0.7444430793368494,0.0,0.0,0.0,0.7443909737398025,0.008807757219598755,0.0,0.0,0.0,0.0,0.0,0.0,0.2051268040583035,0.0
1709637586.334748,127,1709637586,324668884,,-1.3389627934914028,-0.6210164898023952,0.0,0.0,0.0,-1.555187197519368,0.02049437511536374,-0.7459379672853269,0.0,0.7462194519369854,0.0,0.0,0.0,0.7461669834938341,0.008848909133170406,0.0,0.0,0.0,0.0,0.0,0.0,0.20598620329605044,0.0
1709637586.3448248,128,1709637586,334748030,,-1.3373121346229704,-0.6271741613231774,0.0,0.0,0.0,-1.5503512097080885,0.024165231333522857,-0.7477423637768493,0.0,0.7481327428952651,0.0,0.0,0.0,0.7480801165798711,0.00887356579055814,0.0,0.0,0.0,0.0,0.0,0.0,0.20675303031972803,0.0
1709637586.3448248,129,1709637586,345554113,,-1.3382377571961608,-0.6343331619885856,0.0,0.0,0.0,-1.5448901323602697,0.02832801897295289,-0.7498632508702586,0.0,0.7503981420983425,0.0,0.0,0.0,0.7503454258228462,0.008894583260382954,0.0,0.0,0.0,0.0,0.0,0.0,0.20753893766132142,0.0
1709637586.365059,130,1709637586,354883671,,-1.3346884195318591,-0.6377698646613186,0.0,0.0,0.0,-1.5407043594898795,0.029999339559062695,-0.7506859148221953,0.0,0.7512851010677745,0.0,0.0,0.0,0.7512486603850282,0.007399551075345361,0.0,0.0,0.0,0.0,0.0,0.0,0.188622269954163,0.0
1709637586.365059,131,1709637586,354883671,,-1.3363410258336503,-0.6364293470377591,0.0,0.0,0.0,-1.537245611903997,0.032592734442880064,-0.7505078234956672,0.0,0.7512152018341134,0.0,0.0,0.0,0.7511787627762757,0.007399041868469412,0.0,0.0,0.0,0.0,0.0,0.0,0.1886033965552982,0.0
1709637586.375171,132,1709637586,365058899,,-1.3344353724908047,-0.6425488343442167,0.0,0.0,0.0,-1.532865518787754,0.035343673806661785,-0.752221805448547,0.0,0.7530516714478651,0.0,0.0,0.0,0.753021034854987,0.006792712002428137,0.0,0.0,0.0,0.0,0.0,0.0,0.1752810916775689,0.0
1709637586.3853784,133,1709637586,375170946,,-1.3340721700462692,-0.65016535617186,0.0,0.0,0.0,-1.5311381549304601,0.036519822639910327,-0.7541980557777547,0.0,0.7550817206002246,0.0,0.0,0.0,0.7550529730333781,0.006588831311570233,0.0,0.0,0.0,0.0,0.0,0.0,0.16701478515688167,0.0
1709637586.3954566,134,1709637586,385378361,,-1.3378400983063743,-0.6548022355400259,0.0,0.0,0.0,-1.5259216796968662,0.04044544153854322,-0.7552750155292157,0.0,0.756357179396021,0.0,0.0,0.0,0.7563290474945685,0.006523399410080426,0.0,0.0,0.0,0.0,0.0,0.0,0.1617020433647685,0.0
1709637586.3954566,135,1709637586,395659208,,-1.3352778831348486,-0.6600188457447242,0.0,0.0,0.0,-1.522082021598717,0.04339968530134971,-0.7565145989655376,0.0,0.7577584517062441,0.0,0.0,0.0,0.757730489722105,0.006509691063575105,0.0,0.0,0.0,0.0,0.0,0.0,0.158468548972854,0.0
1709637586.4055307,136,1709637586,405530691,,-1.3348431476461107,-0.6674959833399176,0.0,0.0,0.0,-1.520527003175234,0.04467944373788624,-0.7583790094557112,0.0,0.7596940006843232,0.0,0.0,0.0,0.7596660570790142,0.0065158574091603964,0.0,0.0,0.0,0.0,0.0,0.0,0.1567421494044029,0.0
1709637586.4055307,137,1709637586,405530691,,-1.3348431476461107,-0.6674959833399176,0.0,0.0,0.0,-1.520527003175234,0.04467944373788624,-0.7583790094557112,0.0,0.7596940006843232,0.0,0.0,0.0,0.7596660570790142,0.0065158574091603964,0.0,0.0,0.0,0.0,0.0,0.0,0.1567421494044029,0.0
1709637586.4156055,138,1709637586,415605545,,-1.33067409680364,-0.6714428205994548,0.0,0.0,0.0,-1.5160808309375409,0.04811496043268734,-0.7592270875300109,0.0,0.7607501691467061,0.0,0.0,0.0,0.7607222100402254,0.006522193515765364,0.0,0.0,0.0,0.0,0.0,0.0,0.1555739523679082,0.0
1709637586.4156055,139,1709637586,415605545,,-1.3335640460722573,-0.6690245924956473,0.0,0.0,0.0,-1.5118711047840547,0.051282755054751876,-0.7585845354843026,0.0,0.7603159990700845,0.0,0.0,0.0,0.7602880440955845,0.0065198502476199625,0.0,0.0,0.0,0.0,0.0,0.0,0.15548112685872725,0.0
1709637586.4258597,140,1709637586,425859690,,-1.3313295246675194,-0.675082484772745,0.0,0.0,0.0,-1.507840849978572,0.05445654841733852,-0.7600551385727153,0.0,0.7620034969318181,0.0,0.0,0.0,0.7619755115059202,0.0065306356207187515,0.0,0.0,0.0,0.0,0.0,0.0,0.1549472750535778,0.0
1709637586.4359903,141,1709637586,425859690,,-1.3313295246675194,-0.675082484772745,0.0,0.0,0.0,-1.507840849978572,0.05445654841733852,-0.7600551385727153,0.0,0.7620034969318181,0.0,0.0,0.0,0.7619755115059202,0.0065306356207187515,0.0,0.0,0.0,0.0,0.0,0.0,0.1549472750535778,0.0
1709637586.4359903,142,1709637586,435990334,,-1.3307711101014876,-0.6827917718291148,0.0,0.0,0.0,-1.5062720828810965,0.05578669701302894,-0.7619157828616402,0.0,0.7639553754881823,0.0,0.0,0.0,0.7639273585654924,0.006542673187557647,0.0,0.0,0.0,0.0,0.0,0.0,0.15480091704142873,0.0
1709637586.4359903,143,1709637586,435990334,,-1.3307711101014876,-0.6827917718291148,0.0,0.0,0.0,-1.5062720828810965,0.05578669701302894,-0.7619157828616402,0.0,0.7639553754881823,0.0,0.0,0.0,0.7639273585654924,0.006542673187557647,0.0,0.0,0.0,0.0,0.0,0.0,0.15480091704142873,0.0
1709637586.4561925,144,1709637586,446110249,,-1.3301998128589911,-0.6905116281432631,0.0,0.0,0.0,-1.5047053868912494,0.05711965713402171,-0.7637575246227692,0.0,0.7658904697468224,0.0,0.0,0.0,0.7658624247140678,0.006554239856535351,0.0,0.0,0.0,0.0,0.0,0.0,0.15485087407961393,0.0
1709637586.4662757,145,1709637586,456192493,,-1.3266552906239675,-0.695475669611107,0.0,0.0,0.0,-1.5003938491236337,0.06051513724218714,-0.7648505873289883,0.0,0.7672408375294808,0.0,0.0,0.0,0.7672127727679635,0.006562322350534024,0.0,0.0,0.0,0.0,0.0,0.0,0.15490759444894234,0.0
1709637586.4763615,146,1709637586,466275692,,-1.3307468789364008,-0.6992908719150304,0.0,0.0,0.0,-1.4947013277775378,0.06494484734167075,-0.7654278021668486,0.0,0.7681780740988415,0.0,0.0,0.0,0.7681499961230798,0.006567875023002373,0.0,0.0,0.0,0.0,0.0,0.0,0.15495981533063785,0.0
1709637586.4864542,147,1709637586,477077723,,-1.3258725297997254,-0.7029680010116193,0.0,0.0,0.0,-1.49043850175174,0.06828695091905632,-0.7660679865800221,0.0,0.769105498438667,0.0,0.0,0.0,0.7690774082664743,0.006573265757081148,0.0,0.0,0.0,0.0,0.0,0.0,0.1550558858944944,0.0
1709637586.4864542,148,1709637586,486454248,,-1.3239908306913222,-0.7094269762076589,0.0,0.0,0.0,-1.4861359912583856,0.07174467173636893,-0.7675640196674723,0.0,0.7709097367465579,0.0,0.0,0.0,0.7708816285290742,0.006583084915882479,0.0,0.0,0.0,0.0,0.0,0.0,0.15536994695092,0.0
1709637586.4965358,149,1709637586,496535778,,-1.3232606087232033,-0.7171740548164176,0.0,0.0,0.0,-1.4845679052926566,0.07311982168728934,-0.769318777459899,0.0,0.7727857980553049,0.0,0.0,0.0,0.7727576719534979,0.006593186861049895,0.0,0.0,0.0,0.0,0.0,0.0,0.15571307966424613,0.0
1709637586.5066187,150,1709637586,496535778,,-1.3232606087232033,-0.7171740548164176,0.0,0.0,0.0,-1.4845679052926566,0.07311982168728934,-0.769318777459899,0.0,0.7727857980553049,0.0,0.0,0.0,0.7727576719534979,0.006593186861049895,0.0,0.0,0.0,0.0,0.0,0.0,0.15571307966424613,0.0
1709637586.5167031,151,1709637586,508963823,,-1.3265775488469957,-0.7171529842819739,0.0,0.0,0.0,-1.4731011934815013,0.081948493259959,-0.768545633030208,0.0,0.7729022872248345,0.0,0.0,0.0,0.7728741589065354,0.006593943576943881,0.0,0.0,0.0,0.0,0.0,0.0,0.1557110033923059,0.0
1709637586.5167031,152,1709637586,516703129,,-1.3259391644693046,-0.7231061193614549,0.0,0.0,0.0,-1.471895025978651,0.08302419533042754,-0.7698685794969925,0.0,0.7743323877424877,0.0,0.0,0.0,0.7743042466411061,0.006601540769502304,0.0,0.0,0.0,0.0,0.0,0.0,0.15598843759753067,0.0
1709637586.536856,153,1709637586,526791811,,-1.325094167188946,-0.7308817541856713,0.0,0.0,0.0,-1.4703164160309126,0.08459791035404784,-0.7716007022094433,0.0,0.7762244843383759,0.0,0.0,0.0,0.7761949500346518,0.006771235270017529,0.0,0.0,0.0,0.0,0.0,0.0,0.1581154785752216,0.0
1709637586.536856,154,1709637586,536855936,,-1.320248960142351,-0.7344974679539189,0.0,0.0,0.0,-1.4655944810310133,0.08859140926174697,-0.7721707808790733,0.0,0.7772362270496533,0.0,0.0,0.0,0.7772045458461345,0.0070175889366622685,0.0,0.0,0.0,0.0,0.0,0.0,0.16207897162014834,0.0
1709637586.5469475,155,1709637586,546947479,,-1.3180798674441772,-0.741584221209616,0.0,0.0,0.0,-1.4612234987342494,0.0921773645623859,-0.7736989737093146,0.0,0.7791705644186733,0.0,0.0,0.0,0.7791389606717898,0.007017721838102215,0.0,0.0,0.0,0.0,0.0,0.0,0.163402910777462,0.0
1709637586.5469475,156,1709637586,546947479,,-1.3180798674441772,-0.741584221209616,0.0,0.0,0.0,-1.4612234987342494,0.0921773645623859,-0.7736989737093146,0.0,0.7791705644186733,0.0,0.0,0.0,0.7791389606717898,0.007017721838102215,0.0,0.0,0.0,0.0,0.0,0.0,0.163402910777462,0.0
1709637586.557014,157,1709637586,557013988,,-1.317144112213378,-0.7493811043735689,0.0,0.0,0.0,-1.459568588912112,0.09401995605790221,-0.7753626124658437,0.0,0.781042209452849,0.0,0.0,0.0,0.7810073908136298,0.0073748519628589635,0.0,0.0,0.0,0.0,0.0,0.0,0.16847669954044175,0.0
1709637586.557014,158,1709637586,557013988,,-1.317144112213378,-0.7493811043735689,0.0,0.0,0.0,-1.459568588912112,0.09401995605790221,-0.7753626124658437,0.0,0.781042209452849,0.0,0.0,0.0,0.7810073908136298,0.0073748519628589635,0.0,0.0,0.0,0.0,0.0,0.0,0.16847669954044175,0.0
1709637586.567078,159,1709637586,567078114,,-1.321937238559045,-0.7485680492902962,0.0,0.0,0.0,-1.452702095650152,0.0997321819412526,-0.7744354932123194,0.0,0.780830865976603,0.0,0.0,0.0,0.7807919702980219,0.007793611480210741,0.0,0.0,0.0,0.0,0.0,0.0,0.17605282581786502,0.0
1709637586.567078,160,1709637586,567816496,,-1.3223346214455987,-0.7487158029761172,0.0,0.0,0.0,-1.4496141321335048,0.10216698753558516,-0.7743300350070997,0.0,0.7810410337851609,0.0,0.0,0.0,0.7810019626656298,0.007812219187077818,0.0,0.0,0.0,0.0,0.0,0.0,0.17654029373036015,0.0
1709637586.5771618,161,1709637586,577161789,,-1.3213720122070374,-0.7559595036797371,0.0,0.0,0.0,-1.4479398348089116,0.10382800815649887,-0.7759052677215225,0.0,0.7828213332272911,0.0,0.0,0.0,0.782780861756622,0.007960039152776374,0.0,0.0,0.0,0.0,0.0,0.0,0.1814784670271682,0.0
1709637586.5771618,162,1709637586,577161789,,-1.3213720122070374,-0.7559595036797371,0.0,0.0,0.0,-1.4479398348089116,0.10382800815649887,-0.7759052677215225,0.0,0.7828213332272911,0.0,0.0,0.0,0.782780861756622,0.007960039152776374,0.0,0.0,0.0,0.0,0.0,0.0,0.1814784670271682,0.0
1709637586.5872304,163,1709637586,587230444,,-1.3203171321908147,-0.7637802299112971,0.0,0.0,0.0,-1.4460852647922413,0.10591734857598302,-0.7775360653843596,0.0,0.7847170303381706,0.0,0.0,0.0,0.7846722993236659,0.008378566516338828,0.0,0.0,0.0,0.0,0.0,0.0,0.18907139492400346,0.0
1709637586.5872304,164,1709637586,587230444,,-1.3203171321908147,-0.7637802299112971,0.0,0.0,0.0,-1.4460852647922413,0.10591734857598302,-0.7775360653843596,0.0,0.7847170303381706,0.0,0.0,0.0,0.7846722993236659,0.008378566516338828,0.0,0.0,0.0,0.0,0.0,0.0,0.18907139492400346,0.0
1709637586.597323,165,1709637586,597322941,,-1.3186163308565717,-0.7645609697165482,0.0,0.0,0.0,-1.4389991693949131,0.1119757868671267,-0.7770536786024933,0.0,0.7850802483021587,0.0,0.0,0.0,0.785029942031925,0.008887428623158089,0.0,0.0,0.0,0.0,0.0,0.0,0.19913410858327815,0.0
1709637586.597323,166,1709637586,597322941,,-1.3186163308565717,-0.7645609697165482,0.0,0.0,0.0,-1.4389991693949131,0.1119757868671267,-0.7770536786024933,0.0,0.7850802483021587,0.0,0.0,0.0,0.785029942031925,0.008887428623158089,0.0,0.0,0.0,0.0,0.0,0.0,0.19913410858327815,0.0
1709637586.6074085,167,1709637586,607722759,,-1.3175094744048432,-0.7700209158125568,0.0,0.0,0.0,-1.4324535899568183,0.1177782830641515,-0.7777343055434969,0.0,0.7866017886966471,0.0,0.0,0.0,0.7865455971629215,0.009401997893423343,0.0,0.0,0.0,0.0,0.0,0.0,0.21010530412207148,0.0
1709637586.6074085,168,1709637586,607722759,,-1.3175094744048432,-0.7700209158125568,0.0,0.0,0.0,-1.4324535899568183,0.1177782830641515,-0.7777343055434969,0.0,0.7866017886966471,0.0,0.0,0.0,0.7865455971629215,0.009401997893423343,0.0,0.0,0.0,0.0,0.0,0.0,0.21010530412207148,0.0
1709637586.6174746,169,1709637586,617474556,,-1.3163479794316366,-0.7776120393009489,0.0,0.0,0.0,-1.4303359349637084,0.12065316523169733,-0.7790837947815039,0.0,0.788370944144681,0.0,0.0,0.0,0.7883024233023606,0.010393988031635777,0.0,0.0,0.0,0.0,0.0,0.0,0.22681684482896833,0.0
1709637586.6174746,170,1709637586,617474556,,-1.3163479794316366,-0.7776120393009489,0.0,0.0,0.0,-1.4303359349637084,0.12065316523169733,-0.7790837947815039,0.0,0.788370944144681,0.0,0.0,0.0,0.7883024233023606,0.010393988031635777,0.0,0.0,0.0,0.0,0.0,0.0,0.22681684482896833,0.0
1709637586.6276152,171,1709637586,627615213,,-1.3151048772369334,-0.785518024360304,0.0,0.0,0.0,-1.4278899768937614,0.12455682400183465,-0.7801469902939,0.0,0.7900276760152485,0.0,0.0,0.0,0.7899338067929851,0.012178249282937861,0.0,0.0,0.0,0.0,0.0,0.0,0.25663057442172216,0.0
1709637586.6276152,172,1709637586,628405571,,-1.3121882876299802,-0.7831699003294292,0.0,0.0,0.0,-1.4258424013564952,0.12619024243712107,-0.7795065590009277,0.0,0.7896546414805691,0.0,0.0,0.0,0.7895593140560958,0.012269572081926416,0.0,0.0,0.0,0.0,0.0,0.0,0.25857968084625876,0.0
1709637586.6377017,173,1709637586,637701750,,-1.3134262727234023,-0.7884123338271422,0.0,0.0,0.0,-1.4207302121197272,0.13126404658863447,-0.7797952658751922,0.0,0.7907660251984685,0.0,0.0,0.0,0.7906557344747484,0.013206670677395043,0.0,0.0,0.0,0.0,0.0,0.0,0.28100784627809294,0.0
1709637586.6377017,174,1709637586,639343023,,-1.3132103336478758,-0.7896923248014847,0.0,0.0,0.0,-1.420265334222409,0.13186767883963849,-0.7799590066266103,0.0,0.7910278988382918,0.0,0.0,0.0,0.7909142002211418,0.01341136193957937,0.0,0.0,0.0,0.0,0.0,0.0,0.2854283287190203,0.0
1709637586.6478217,175,1709637586,647821665,,-1.3120777433435398,-0.7963085434577263,0.0,0.0,0.0,-1.4177347688983384,0.13521856940284385,-0.7807341460179458,0.0,0.7923571595371135,0.0,0.0,0.0,0.7922225754982457,0.014603394833021593,0.0,0.0,0.0,0.0,0.0,0.0,0.3105808971212444,0.0
1709637586.6478217,176,1709637586,647821665,,-1.3120777433435398,-0.7963085434577263,0.0,0.0,0.0,-1.4177347688983384,0.13521856940284385,-0.7807341460179458,0.0,0.7923571595371135,0.0,0.0,0.0,0.7922225754982457,0.014603394833021593,0.0,0.0,0.0,0.0,0.0,0.0,0.3105808971212444,0.0
1709637586.657913,177,1709637586,657912970,,-1.3208860663758077,-0.7960443962057158,0.0,0.0,0.0,-1.430325862803267,0.1257810447372845,-0.7807874133678203,0.0,0.790853877836364,0.0,0.0,0.0,0.7907073153760127,0.015224897361665749,0.0,0.0,0.0,0.0,0.0,0.0,0.3309928771347341,0.0
1709637586.657913,178,1709637586,657912970,,-1.3208860663758077,-0.7960443962057158,0.0,0.0,0.0,-1.430325862803267,0.1257810447372845,-0.7807874133678203,0.0,0.790853877836364,0.0,0.0,0.0,0.7907073153760127,0.015224897361665749,0.0,0.0,0.0,0.0,0.0,0.0,0.3309928771347341,0.0
1709637586.6680021,179,1709637586,668002129,,-1.3195995007721248,-0.803927530460236,0.0,0.0,0.0,-1.4268921695803425,0.12974470576099156,-0.7818136082991342,0.0,0.7925062818645151,0.0,0.0,0.0,0.7923389401118504,0.016285293277919683,0.0,0.0,0.0,0.0,0.0,0.0,0.3544819810394319,0.0
1709637586.6680021,180,1709637586,668002129,,-1.3195995007721248,-0.803927530460236,0.0,0.0,0.0,-1.4268921695803425,0.12974470576099156,-0.7818136082991342,0.0,0.7925062818645151,0.0,0.0,0.0,0.7923389401118504,0.016285293277919683,0.0,0.0,0.0,0.0,0.0,0.0,0.3544819810394319,0.0
1709637586.6781085,181,1709637586,678108454,,-1.3182654401286122,-0.8118328999914671,0.0,0.0,0.0,-1.4231591506333097,0.13410793633587922,-0.7826584729619526,0.0,0.7940649997874253,0.0,0.0,0.0,0.7938717236606895,0.017518854397750784,0.0,0.0,0.0,0.0,0.0,0.0,0.38241187772594054,0.0
1709637586.6781085,182,1709637586,678108454,,-1.3182654401286122,-0.8118328999914671,0.0,0.0,0.0,-1.4231591506333097,0.13410793633587922,-0.7826584729619526,0.0,0.7940649997874253,0.0,0.0,0.0,0.7938717236606895,0.017518854397750784,0.0,0.0,0.0,0.0,0.0,0.0,0.38241187772594054,0.0
1709637586.6882162,183,1709637586,688216209,,-1.316890405283759,-0.8197487880617823,0.0,0.0,0.0,-1.4191930433119602,0.1379264882732191,-0.7836843262990099,0.0,0.7957291244224478,0.0,0.0,0.0,0.7955257383693468,0.01798997070650591,0.0,0.0,0.0,0.0,0.0,0.0,0.40111142100140107,0.0
1709637586.6882162,184,1709637586,688738346,,-1.311593217927264,-0.8153883558447277,0.0,0.0,0.0,-1.4160078596305097,0.14034015223209187,-0.7826828451512714,0.0,0.7951652623339476,0.0,0.0,0.0,0.7949616137960789,0.01799519417371452,0.0,0.0,0.0,0.0,0.0,0.0,0.40160266783871545,0.0
1709637586.6983047,185,1709637586,698304653,,-1.311844756917368,-0.8214350908808794,0.0,0.0,0.0,-1.4082338612881702,0.1466806005697305,-0.7830206433621881,0.0,0.7966407763319876,0.0,0.0,0.0,0.7964370151390862,0.01801686518723195,0.0,0.0,0.0,0.0,0.0,0.0,0.4115620851106225,0.0
1709637586.6983047,186,1709637586,699732780,,-1.3092449772560864,-0.820059678282091,0.0,0.0,0.0,-1.4051377250801274,0.1490882084766119,-0.7825211973895092,0.0,0.7965969609976409,0.0,0.0,0.0,0.7963933910796245,0.018007912576787674,0.0,0.0,0.0,0.0,0.0,0.0,0.4125366760705185,0.0
1709637586.7083678,187,1709637586,708367825,,-1.3079442481684918,-0.8268205825448408,0.0,0.0,0.0,-1.401546986332546,0.15223663756265915,-0.7834130330522892,0.0,0.7980676501228273,0.0,0.0,0.0,0.7978623403516999,0.018101381745041903,0.0,0.0,0.0,0.0,0.0,0.0,0.41934398129695366,0.0
1709637586.7083678,188,1709637586,708367825,,-1.3079442481684918,-0.8268205825448408,0.0,0.0,0.0,-1.401546986332546,0.15223663756265915,-0.7834130330522892,0.0,0.7980676501228273,0.0,0.0,0.0,0.7978623403516999,0.018101381745041903,0.0,0.0,0.0,0.0,0.0,0.0,0.41934398129695366,0.0
1709637586.7184305,189,1709637586,718885899,,-1.3069031912625413,-0.8301403691767439,0.0,0.0,0.0,-1.3929245145676186,0.15928239444796022,-0.7831393043580627,0.0,0.7991733549183844,0.0,0.0,0.0,0.7989659915481166,0.018204273153324315,0.0,0.0,0.0,0.0,0.0,0.0,0.4257395912040711,0.0
1709637586.7184305,190,1709637586,718885899,,-1.3069031912625413,-0.8301403691767439,0.0,0.0,0.0,-1.3929245145676186,0.15928239444796022,-0.7831393043580627,0.0,0.7991733549183844,0.0,0.0,0.0,0.7989659915481166,0.018204273153324315,0.0,0.0,0.0,0.0,0.0,0.0,0.4257395912040711,0.0
1709637586.7284985,191,1709637586,728498459,,-1.3064665663180628,-0.8367666673913218,0.0,0.0,0.0,-1.3867934694408313,0.16442141934511298,-0.7837226714108996,0.0,0.8007843834784106,0.0,0.0,0.0,0.800576373450731,0.01825100258544732,0.0,0.0,0.0,0.0,0.0,0.0,0.4300294701880468,0.0
1709637586.7284985,192,1709637586,731297493,,-1.30600488446758,-0.8389607284358647,0.0,0.0,0.0,-1.3855883501392088,0.16546542422144953,-0.7840042335627709,0.0,0.8012748871998499,0.0,0.0,0.0,0.8010667881031532,0.018260499862543002,0.0,0.0,0.0,0.0,0.0,0.0,0.43105185266515944,0.0
1709637586.738574,193,1709637586,738574028,,-1.3047909707490328,-0.8446681973551636,0.0,0.0,0.0,-1.3824431934916612,0.16818837983396587,-0.7847258154393664,0.0,0.8025471553299238,0.0,0.0,0.0,0.8023389280388501,0.018280620383942837,0.0,0.0,0.0,0.0,0.0,0.0,0.43333040443440235,0.0
1709637586.738574,194,1709637586,739296436,,-1.3046693721652762,-0.8452351153707774,0.0,0.0,0.0,-1.382130079311446,0.16845944875147928,-0.7847966009265265,0.0,0.8026732153868608,0.0,0.0,0.0,0.8024649807440566,0.018282378918584648,0.0,0.0,0.0,0.0,0.0,0.0,0.43353099018986185,0.0
1709637586.7486804,195,1709637586,748680353,,-1.3030730445360408,-0.8526035536359288,0.0,0.0,0.0,-1.3780617814124008,0.17179222349812145,-0.7856334148983899,0.0,0.8041967611594404,0.0,0.0,0.0,0.8039924089277752,0.01812834923116696,0.0,0.0,0.0,0.0,0.0,0.0,0.4335835426445353,0.0
1709637586.7486804,196,1709637586,748680353,,-1.3030730445360408,-0.8526035536359288,0.0,0.0,0.0,-1.3780617814124008,0.17179222349812145,-0.7856334148983899,0.0,0.8041967611594404,0.0,0.0,0.0,0.8039924089277752,0.01812834923116696,0.0,0.0,0.0,0.0,0.0,0.0,0.4335835426445353,0.0
1709637586.758785,197,1709637586,758785009,,-1.3000077724570425,-0.8508308730615324,0.0,0.0,0.0,-1.3711559085309237,0.17714748704406483,-0.784485446515889,0.0,0.8042379299444046,0.0,0.0,0.0,0.804035300357287,0.018052250292644165,0.0,0.0,0.0,0.0,0.0,0.0,0.43302264378663297,0.0
1709637586.758785,198,1709637586,759338856,,-1.299909603307096,-0.8512653700533618,0.0,0.0,0.0,-1.3709160747015527,0.1773521157231071,-0.7845308658252019,0.0,0.80432732912907,0.0,0.0,0.0,0.8041247512276882,0.01805095141292776,0.0,0.0,0.0,0.0,0.0,0.0,0.433043731210867,0.0
1709637586.7688847,199,1709637586,768884659,,-1.2981997328613895,-0.858758022465446,0.0,0.0,0.0,-1.366780333432517,0.18089898752208733,-0.7852952394326851,0.0,0.8058616858755319,0.0,0.0,0.0,0.8056596584030286,0.0180436023030275,0.0,0.0,0.0,0.0,0.0,0.0,0.43348348439804757,0.0
1709637586.7688847,200,1709637586,768884659,,-1.2981997328613895,-0.858758022465446,0.0,0.0,0.0,-1.366780333432517,0.18089898752208733,-0.7852952394326851,0.0,0.8058616858755319,0.0,0.0,0.0,0.8056596584030286,0.0180436023030275,0.0,0.0,0.0,0.0,0.0,0.0,0.43348348439804757,0.0
1709637586.7789912,201,1709637586,778991222,,-1.2997993801402383,-0.8611382877250024,0.0,0.0,0.0,-1.3614069898441663,0.18524053648955455,-0.7849093241027338,0.0,0.8064717623217494,0.0,0.0,0.0,0.8062699411419708,0.01804121485020558,0.0,0.0,0.0,0.0,0.0,0.0,0.4335337406237582,0.0
1709637586.7890623,202,1709637586,787321806,,-1.2993410680909339,-0.8668368300850665,0.0,0.0,0.0,-1.3564578494834403,0.18942441598905724,-0.7852965373546791,0.0,0.8078194482395458,0.0,0.0,0.0,0.8076176234194086,0.018056447503054626,0.0,0.0,0.0,0.0,0.0,0.0,0.43409064704420414,0.0
1709637586.7890623,203,1709637586,789062262,,-1.2990107756028944,-0.8682037013337678,0.0,0.0,0.0,-1.3557018194253074,0.19012177672217823,-0.7854086605910534,0.0,0.8080922311935873,0.0,0.0,0.0,0.8078894278261952,0.018103218556189273,0.0,0.0,0.0,0.0,0.0,0.0,0.4346771406553264,0.0
1709637586.799147,204,1709637586,799146891,,-1.2970735754652714,-0.8761276116516793,0.0,0.0,0.0,-1.3513048879206606,0.19399797122543747,-0.7860908117418567,0.0,0.8096752294250806,0.0,0.0,0.0,0.8094709785049546,0.01818549154651022,0.0,0.0,0.0,0.0,0.0,0.0,0.43659776632373976,0.0
1709637586.799147,205,1709637586,799146891,,-1.2970735754652714,-0.8761276116516793,0.0,0.0,0.0,-1.3513048879206606,0.19399797122543747,-0.7860908117418567,0.0,0.8096752294250806,0.0,0.0,0.0,0.8094709785049546,0.01818549154651022,0.0,0.0,0.0,0.0,0.0,0.0,0.43659776632373976,0.0
1709637586.8092155,206,1709637586,809215546,,-1.292336658600638,-0.8806726406332481,0.0,0.0,0.0,-1.3465934010826364,0.19789756278150014,-0.7862784188137194,0.0,0.8108003436401964,0.0,0.0,0.0,0.8105975796112892,0.0181317725382859,0.0,0.0,0.0,0.0,0.0,0.0,0.43657937516228035,0.0
1709637586.8092155,207,1709637586,809215546,,-1.292336658600638,-0.8806726406332481,0.0,0.0,0.0,-1.3465934010826364,0.19789756278150014,-0.7862784188137194,0.0,0.8108003436401964,0.0,0.0,0.0,0.8105975796112892,0.0181317725382859,0.0,0.0,0.0,0.0,0.0,0.0,0.43657937516228035,0.0
1709637586.819292,208,1709637586,819292068,,-1.290323382042061,-0.8885989109135862,0.0,0.0,0.0,-1.3421922339254635,0.20170556507775783,-0.786930592446697,0.0,0.8123699233180947,0.0,0.0,0.0,0.8121676985071703,0.018125170714043605,0.0,0.0,0.0,0.0,0.0,0.0,0.43699605370530303,0.0
1709637586.8293839,209,1709637586,823342800,,-1.2872891818256857,-0.8896149501267062,0.0,0.0,0.0,-1.3395668907128222,0.20386573816305784,-0.7868014688932765,0.0,0.8127839753891473,0.0,0.0,0.0,0.812581853761864,0.01812516444942387,0.0,0.0,0.0,0.0,0.0,0.0,0.4370898462736324,0.0
1709637586.8293839,210,1709637586,831354618,,-1.2856435150363175,-0.8959210042231605,0.0,0.0,0.0,-1.336063017838291,0.2069458857389422,-0.7873829378416356,0.0,0.8141243703688033,0.0,0.0,0.0,0.8139222886654547,0.01813831419919249,0.0,0.0,0.0,0.0,0.0,0.0,0.4375970790111657,0.0
1709637586.8495564,211,1709637586,843428612,,-1.2903913534668512,-0.8965379840944415,0.0,0.0,0.0,-1.3309048887076007,0.21105904046253354,-0.786526891705847,0.0,0.8143527920609264,0.0,0.0,0.0,0.8141507620485458,0.018138538893711073,0.0,0.0,0.0,0.0,0.0,0.0,0.437514612162821,0.0
1709637586.8598096,212,1709637586,859355211,,-1.2929547752931743,-0.9048892849944772,0.0,0.0,0.0,-1.3255664703949892,0.21588463033569547,-0.7868832100266445,0.0,0.8159603910956807,0.0,0.0,0.0,0.8157532028115819,0.018386732707642798,0.0,0.0,0.0,0.0,0.0,0.0,0.44151394193926213,0.0
1709637586.8699002,213,1709637586,863347530,,-1.2920899628360565,-0.9080312307694278,0.0,0.0,0.0,-1.3238041625954686,0.21735779265495267,-0.7871101025185461,0.0,0.8165700971224635,0.0,0.0,0.0,0.816364517192593,0.01832207912585793,0.0,0.0,0.0,0.0,0.0,0.0,0.44134638410076343,0.0
1709637586.879982,214,1709637586,869900227,,-1.2871062878225195,-0.9084522950886473,0.0,0.0,0.0,-1.3205129657587318,0.22000506030660202,-0.7868859625064677,0.0,0.8170628767422012,0.0,0.0,0.0,0.8168589122005916,0.01825546791259343,0.0,0.0,0.0,0.0,0.0,0.0,0.4409307023133481,0.0
1709637586.879982,215,1709637586,879981995,,-1.2868983704725598,-0.9147874175035834,0.0,0.0,0.0,-1.3152045413861497,0.2245008112092403,-0.7870745247375623,0.0,0.8184662007220986,0.0,0.0,0.0,0.8182633536413539,0.01822102664701615,0.0,0.0,0.0,0.0,0.0,0.0,0.44091108121565065,0.0
