Time,header.seq,header.stamp.secs,header.stamp.nsecs,header.frame_id,x,y,z,roll,pitch,yaw,vx_w,vy_w,vz_w,v_tot,ax_w,ay_w,az_w,vx_b,vy_b,vz_b,ax_b,ay_b,az_b,droll,dpitch,dyaw,steer
1709637585.3039215,0,1709637585,305848122,,-1.2100321058233436,-0.1300638508585094,0.0,0.0,0.0,-2.043626800390088,-0.0058214840357354875,-0.011716061196863003,0.0,0.013082651350049886,0.0,0.0,0.0,0.013081758753498686,0.0001528210136814407,0.0,0.0,0.0,0.0,0.0,0.0,0.001645442512564969,0.0
1709637585.3241756,1,1709637585,323303461,,-1.2121315331144091,-0.14528711617562856,0.0,0.0,0.0,-2.060061203599325,-0.008302250770277962,-0.016262735670223467,0.0,0.018259352106034313,0.0,0.0,0.0,0.01825663661488764,0.00031489497309989783,0.0,0.0,0.0,0.0,0.0,0.0,0.003726028651608205,0.0
1709637585.3342607,2,1709637585,327307940,,-1.2122269574261202,-0.14547368540255057,0.0,0.0,0.0,-2.060016013797502,-0.010630194635743374,-0.020723398815880617,0.0,0.023290777068956485,0.0,0.0,0.0,0.02328806494269254,0.0003554260834040704,0.0,0.0,0.0,0.0,0.0,0.0,0.005096372944954014,0.0
1709637585.3444734,3,1709637585,334260702,,-1.2123462968899879,-0.14570536178667273,0.0,0.0,0.0,-2.0599609873559395,-0.013026630402092803,-0.025189075756723252,0.0,0.028358114131773145,0.0,0.0,0.0,0.028356110224181382,0.00033712025265139167,0.0,0.0,0.0,0.0,0.0,0.0,0.005694429928013835,0.0
1709637585.3444734,4,1709637585,331729174,,-1.212491675561851,-0.14598539703813931,0.0,0.0,0.0,-2.0599024302402404,-0.01544410400871019,-0.029650368643514727,0.0,0.03343149277744234,0.0,0.0,0.0,0.033430168987414945,0.0002975076487412301,0.0,0.0,0.0,0.0,0.0,0.0,0.005692665672784197,0.0
1709637585.3747654,5,1709637585,377589464,,-1.2481202353488983,-0.1194672027076239,0.0,0.0,0.0,-2.0465642066209657,-0.0943797346973589,-0.18915204018894924,0.0,0.2113907013782435,0.0,0.0,0.0,0.21137297410190647,0.0027375990393951498,0.0,0.0,0.0,0.0,0.0,0.0,0.039005153509701324,0.0
1709637585.394958,6,1709637585,383945942,,-1.2534371571461393,-0.1291248103454794,0.0,0.0,0.0,-2.0406303492167766,-0.13190166541646353,-0.279528661668519,0.0,0.3090862695653594,0.0,0.0,0.0,0.30895683444273336,0.008944075410877638,0.0,0.0,0.0,0.0,0.0,0.0,0.16948865994341,0.0
1709637585.4151306,7,1709637585,412666321,,-1.2556830153214507,-0.13532214393706368,0.0,0.0,0.0,-2.0360071400676616,-0.13516903874728742,-0.2897504621204469,0.0,0.31972800836785986,0.0,0.0,0.0,0.31959616231825133,0.009181087426018506,0.0,0.0,0.0,0.0,0.0,0.0,0.1866856800248666,0.0
1709637585.4353294,8,1709637585,419610739,,-1.264437827310009,-0.15393533479437232,0.0,0.0,0.0,-2.0220860377534837,-0.17412248299074715,-0.38663514676040717,0.0,0.4240346398506903,0.0,0.0,0.0,0.4238667406525446,0.011931553205392414,0.0,0.0,0.0,0.0,0.0,0.0,0.24927362095797778,0.0
1709637585.4454153,9,1709637585,444111347,,-1.2673455811866456,-0.16002685585312948,0.0,0.0,0.0,-2.0163694134546644,-0.18664136643208806,-0.4205936387966314,0.0,0.4601456385317894,0.0,0.0,0.0,0.4599662642578917,0.012846960903946941,0.0,0.0,0.0,0.0,0.0,0.0,0.27054613753527096,0.0
1709637585.4555063,10,1709637585,450511217,,-1.2692846814366143,-0.16460853324992397,0.0,0.0,0.0,-2.011784192635695,-0.1882286514024073,-0.4293821160499162,0.0,0.46882728887328295,0.0,0.0,0.0,0.468645528239709,0.013053568600072557,0.0,0.0,0.0,0.0,0.0,0.0,0.2757132621614514,0.0
1709637585.4655952,11,1709637585,455506325,,-1.2718249677339029,-0.17158497934067388,0.0,0.0,0.0,-2.0034231712887287,-0.1963369721076529,-0.45798203161459455,0.0,0.49829283348070813,0.0,0.0,0.0,0.49810269387228007,0.013764238279338129,0.0,0.0,0.0,0.0,0.0,0.0,0.29305980399103243,0.0
1709637585.475695,12,1709637585,474970818,,-1.273805639917152,-0.1762239365947523,0.0,0.0,0.0,-2.0004565202871407,-0.19629945163452012,-0.4616309843979792,0.0,0.5016339706083117,0.0,0.0,0.0,0.5014429958047267,0.013840607885544573,0.0,0.0,0.0,0.0,0.0,0.0,0.29503718719638117,0.0
1709637585.4857752,13,1709637585,480088711,,-1.2750857444779202,-0.18099883924277682,0.0,0.0,0.0,-1.9943399011272045,-0.1936815310497085,-0.4633167666554721,0.0,0.5021702517412201,0.0,0.0,0.0,0.501979148118186,0.013852674412570161,0.0,0.0,0.0,0.0,0.0,0.0,0.295359167747522,0.0
1709637585.495914,14,1709637585,485775232,,-1.2777161311928915,-0.18685892402625884,0.0,0.0,0.0,-1.98783666583184,-0.19927962664783053,-0.48531372369675546,0.0,0.524634901627131,0.0,0.0,0.0,0.5244378002271176,0.014379627889875152,0.0,0.0,0.0,0.0,0.0,0.0,0.30856189634998415,0.0
1709637585.5060015,15,1709637585,504067898,,-1.2797350990561485,-0.1917976285073777,0.0,0.0,0.0,-1.9846986460212643,-0.1989816024868344,-0.48890829179375495,0.0,0.5278494064720695,0.0,0.0,0.0,0.5276515175076874,0.014452404116640324,0.0,0.0,0.0,0.0,0.0,0.0,0.3104511783645916,0.0
1709637585.5160894,16,1709637585,507624149,,-1.2820680076037905,-0.19668398102172938,0.0,0.0,0.0,-1.980056624632037,-0.19896826801180284,-0.4953783607802137,0.0,0.5338427596258173,0.0,0.0,0.0,0.533643355517213,0.014589760698433511,0.0,0.0,0.0,0.0,0.0,0.0,0.31397215220898317,0.0
1709637585.5261724,17,1709637585,528010845,,-1.2836145974054913,-0.2020311436325877,0.0,0.0,0.0,-1.972489827242732,-0.1990958877410938,-0.506618484357645,0.0,0.5443357982057138,0.0,0.0,0.0,0.5441337834150889,0.014828585725978246,0.0,0.0,0.0,0.0,0.0,0.0,0.3201361423926972,0.0
1709637585.5463946,18,1709637585,532505989,,-1.2852778093746158,-0.20872568084591933,0.0,0.0,0.0,-1.965765193545083,-0.19551642825880208,-0.5074555370407873,0.0,0.5438177965021309,0.0,0.0,0.0,0.5436165007801506,0.014795130008809852,0.0,0.0,0.0,0.0,0.0,0.0,0.3196012398259348,0.0
1709637585.5565152,19,1709637585,559296846,,-1.2885706514113515,-0.2163314574677065,0.0,0.0,0.0,-1.9594067594550322,-0.19474541771644172,-0.5151553473051222,0.0,0.550736606354265,0.0,0.0,0.0,0.5505331320335222,0.014969305661019953,0.0,0.0,0.0,0.0,0.0,0.0,0.323799097646261,0.0
1709637585.5666027,20,1709637585,563955307,,-1.288460211283658,-0.219852159230298,0.0,0.0,0.0,-1.9548388757897626,-0.19009387383049403,-0.5095105881442178,0.0,0.5438168076649991,0.0,0.0,0.0,0.5436193835834585,0.01465217019049159,0.0,0.0,0.0,0.0,0.0,0.0,0.31739137414835167,0.0
1709637585.5768828,21,1709637585,563956022,,-1.2907634495378435,-0.22407846413877058,0.0,0.0,0.0,-1.9488512296200495,-0.1906558144921435,-0.5202908994389666,0.0,0.5541229643668194,0.0,0.0,0.0,0.553923842702538,0.014853825242184314,0.0,0.0,0.0,0.0,0.0,0.0,0.3226089233575232,0.0
1709637585.5768828,22,1709637585,576882839,,-1.2926480920621088,-0.22967651038865788,0.0,0.0,0.0,-1.9442212113379174,-0.1902011194897419,-0.5264652352883313,0.0,0.5597696935547236,0.0,0.0,0.0,0.5595696245895448,0.014964793986721799,0.0,0.0,0.0,0.0,0.0,0.0,0.32521851503758864,0.0
1709637585.587156,23,1709637585,587156057,,-1.2945986585555196,-0.235103674621982,0.0,0.0,0.0,-1.940872707301782,-0.18953017639110986,-0.5300981317291786,0.0,0.5629615591011617,0.0,0.0,0.0,0.5627608742775374,0.015030482626733808,0.0,0.0,0.0,0.0,0.0,0.0,0.3267068351380447,0.0
1709637585.5972478,24,1709637585,603302240,,-1.2965078658365337,-0.240471261866996,0.0,0.0,0.0,-1.9375675960338776,-0.1888322959426099,-0.5336538341572746,0.0,0.566077777961401,0.0,0.0,0.0,0.5658764284421414,0.015096967751285783,0.0,0.0,0.0,0.0,0.0,0.0,0.32832110960637106,0.0
1709637585.6174436,25,1709637585,598206520,,-1.2960126333499788,-0.24343960811418017,0.0,0.0,0.0,-1.9330080557366311,-0.18513798703630194,-0.5309535752252605,0.0,0.5623057649431848,0.0,0.0,0.0,0.5621052739339457,0.015014469820280034,0.0,0.0,0.0,0.0,0.0,0.0,0.3260292591924004,0.0
1709637585.6275687,26,1709637585,624668598,,-1.2983829601798,-0.24737877253193222,0.0,0.0,0.0,-1.9262221581080823,-0.18300004458800398,-0.5364343451407134,0.0,0.5667899284265357,0.0,0.0,0.0,0.5665884490315529,0.015111333156834725,0.0,0.0,0.0,0.0,0.0,0.0,0.32857680864878475,0.0
1709637585.6376555,27,1709637585,627611399,,-1.3003788553430986,-0.2531344363674849,0.0,0.0,0.0,-1.9193240952257893,-0.18197973504214737,-0.5456012408596118,0.0,0.5751498396014366,0.0,0.0,0.0,0.5749465066968016,0.015292234326709479,0.0,0.0,0.0,0.0,0.0,0.0,0.33338555158564875,0.0
1709637585.6478336,28,1709637585,639699459,,-1.3021205915688712,-0.2589144712857262,0.0,0.0,0.0,-1.9142603841236183,-0.1809819622339269,-0.5518123303122299,0.0,0.5807334315662015,0.0,0.0,0.0,0.5805288931322248,0.015411773983873576,0.0,0.0,0.0,0.0,0.0,0.0,0.336599716241803,0.0
1709637585.6580184,29,1709637585,661455631,,-1.304155028805875,-0.2652677580359194,0.0,0.0,0.0,-1.9084270519227724,-0.18010523544468293,-0.5600222336321782,0.0,0.588271024271091,0.0,0.0,0.0,0.5880648894036985,0.015571892870632736,0.0,0.0,0.0,0.0,0.0,0.0,0.3409519040580774,0.0
1709637585.6782644,30,1709637585,656771183,,-1.3063763164669837,-0.27081906957376584,0.0,0.0,0.0,-1.9032325323676968,-0.17868962183409445,-0.5655977847433655,0.0,0.5931532981091938,0.0,0.0,0.0,0.5929461529285001,0.01567465422604162,0.0,0.0,0.0,0.0,0.0,0.0,0.34377097414916685,0.0
1709637585.6885772,31,1709637585,666520119,,-1.307494415072225,-0.2760878612848164,0.0,0.0,0.0,-1.8978437649506095,-0.17675687973445858,-0.5700889203377127,0.0,0.5968621043635463,0.0,0.0,0.0,0.596654202970483,0.015752260248565072,0.0,0.0,0.0,0.0,0.0,0.0,0.3459132916997996,0.0
1709637585.6885772,32,1709637585,687760115,,-1.3092945885947926,-0.2820620733209961,0.0,0.0,0.0,-1.8925463857169667,-0.17526678529628253,-0.5759546826858464,0.0,0.6020317620656299,0.0,0.0,0.0,0.6018228197274894,0.01585989253119116,0.0,0.0,0.0,0.0,0.0,0.0,0.34890200114997977,0.0
1709637585.698657,33,1709637585,699485064,,-1.3091071171782525,-0.28604231668303687,0.0,0.0,0.0,-1.8869820493879539,-0.1721142446982481,-0.5771017373139982,0.0,0.6022206642410101,0.0,0.0,0.0,0.6020116831145719,0.01586385301380567,0.0,0.0,0.0,0.0,0.0,0.0,0.34900999987676884,0.0
1709637585.7188554,34,1709637585,711637259,,-1.312875498571549,-0.2990521968774488,0.0,0.0,0.0,-1.8751863222548233,-0.16796034217969802,-0.58822985733304,0.0,0.611739357572463,0.0,0.0,0.0,0.6115285116882573,0.01605991891370475,0.0,0.0,0.0,0.0,0.0,0.0,0.3545145803676769,0.0
1709637585.7289462,35,1709637585,723712683,,-1.314593464435983,-0.30299119133298463,0.0,0.0,0.0,-1.87126038807606,-0.16648128778237548,-0.5917762956367604,0.0,0.6147480811350651,0.0,0.0,0.0,0.6145366580512083,0.01612138860324819,0.0,0.0,0.0,0.0,0.0,0.0,0.35625453014582853,0.0
1709637585.739034,36,1709637585,728946209,,-1.3155165374558324,-0.3082364948378875,0.0,0.0,0.0,-1.8635301412162597,-0.16327950499422414,-0.5979772859894339,0.0,0.6198685597047555,0.0,0.0,0.0,0.6196561680673347,0.016225433324109265,0.0,0.0,0.0,0.0,0.0,0.0,0.35921574646711557,0.0
1709637585.7491152,37,1709637585,749810696,,-1.317156440886863,-0.3142851864542813,0.0,0.0,0.0,-1.8598983804979174,-0.1618429293060563,-0.6012376995762857,0.0,0.622639466431537,0.0,0.0,0.0,0.6224265598203221,0.016281363222657465,0.0,0.0,0.0,0.0,0.0,0.0,0.36081795914094184,0.0
1709637585.7491152,38,1709637585,749811649,,-1.3158303240648772,-0.31751487802972994,0.0,0.0,0.0,-1.8547841727468677,-0.15818809703188452,-0.599919411775459,0.0,0.6204246728391625,0.0,0.0,0.0,0.6202121684054404,0.0162370203363621,0.0,0.0,0.0,0.0,0.0,0.0,0.35953721220117063,0.0
1709637585.769297,39,1709637585,771317244,,-1.3183900716532213,-0.3238894856159777,0.0,0.0,0.0,-1.8461310605923018,-0.1545452637488247,-0.6072216145923288,0.0,0.6265798654403991,0.0,0.0,0.0,0.6263662340722806,0.01636058035087804,0.0,0.0,0.0,0.0,0.0,0.0,0.3630964439794308,0.0
1709637585.769297,40,1709637585,779930592,,-1.3198670430402462,-0.32973502710980723,0.0,0.0,0.0,-1.842637190651126,-0.15307017215720373,-0.6102739135336009,0.0,0.6291778183819364,0.0,0.0,0.0,0.6289637161121936,0.016412524430839355,0.0,0.0,0.0,0.0,0.0,0.0,0.36459857088118075,0.0
1709637585.769297,41,1709637585,779408932,,-1.3211006237393739,-0.33468395499061476,0.0,0.0,0.0,-1.839681680226042,-0.15182683048083112,-0.6129367818309405,0.0,0.6314609132599777,0.0,0.0,0.0,0.6312463590618085,0.016459621694782624,0.0,0.0,0.0,0.0,0.0,0.0,0.36590660174919876,0.0
1709637585.7996693,42,1709637585,779938698,,-1.3242219300878708,-0.3397515281214644,0.0,0.0,0.0,-1.834290436105727,-0.14925615850854607,-0.6167028717418543,0.0,0.6345075514659997,0.0,0.0,0.0,0.6342924830892073,0.016519042463349985,0.0,0.0,0.0,0.0,0.0,0.0,0.36767312736144975,0.0
1709637585.8097548,43,1709637585,807767630,,-1.3228519243601107,-0.34203671134931773,0.0,0.0,0.0,-1.8276511256551444,-0.14490783781135594,-0.6166493923333065,0.0,0.6334467258769266,0.0,0.0,0.0,0.6332318059922825,0.01649952738567517,0.0,0.0,0.0,0.0,0.0,0.0,0.36704892743844986,0.0
1709637585.8198433,44,1709637585,807768583,,-1.3243051751481953,-0.3482725057092191,0.0,0.0,0.0,-1.8239410355545456,-0.14326997269815936,-0.6199233714837512,0.0,0.6362635236980919,0.0,0.0,0.0,0.6360480958413508,0.016555704917163204,0.0,0.0,0.0,0.0,0.0,0.0,0.3686714310102311,0.0
1709637585.8198433,45,1709637585,821583033,,-1.324022104343421,-0.3513700462824275,0.0,0.0,0.0,-1.8170090979395583,-0.13913099992523353,-0.6216041021350317,0.0,0.6369843757356175,0.0,0.0,0.0,0.6367688173965861,0.016570097243154013,0.0,0.0,0.0,0.0,0.0,0.0,0.3690849860059448,0.0
1709637585.8400726,46,1709637585,839700460,,-1.3247349587639068,-0.3571938148948354,0.0,0.0,0.0,-1.8115511682482561,-0.1364441320716403,-0.6255040354787422,0.0,0.6402126987001858,0.0,0.0,0.0,0.639996578173746,0.016633685787312835,0.0,0.0,0.0,0.0,0.0,0.0,0.37094931526991065,0.0
1709637585.8501554,47,1709637585,847343206,,-1.3277597775633145,-0.36222984945344927,0.0,0.0,0.0,-1.8063078061033004,-0.1337587973765838,-0.6289294693856036,0.0,0.6429958734994237,0.0,0.0,0.0,0.6427792747754506,0.016688237067846595,0.0,0.0,0.0,0.0,0.0,0.0,0.3725570607296838,0.0
1709637585.8602748,48,1709637585,847344160,,-1.3267870904168637,-0.36593664871423154,0.0,0.0,0.0,-1.8012193628256863,-0.13056822600141,-0.6296557756313457,0.0,0.6430508980065783,0.0,0.0,0.0,0.6428342872668513,0.01668941404561669,0.0,0.0,0.0,0.0,0.0,0.0,0.3725883895450758,0.0
1709637585.8703632,49,1709637585,872458458,,-1.3285502600828787,-0.372039969866486,0.0,0.0,0.0,-1.795665030790052,-0.12783360564932997,-0.6340419692237353,0.0,0.6468003165354982,0.0,0.0,0.0,0.6465830723651708,0.016762458090536836,0.0,0.0,0.0,0.0,0.0,0.0,0.37475521771489584,0.0
1709637585.8805664,50,1709637585,872465134,,-1.3270826223080303,-0.37665066470350256,0.0,0.0,0.0,-1.7893157051279045,-0.12388254547924761,-0.635224366653167,0.0,0.6471915335233728,0.0,0.0,0.0,0.6469742198623321,0.01677020864097266,0.0,0.0,0.0,0.0,0.0,0.0,0.3749812756567469,0.0
1709637585.8906534,51,1709637585,883818865,,-1.329181226408205,-0.3809264629704882,0.0,0.0,0.0,-1.7843487224887487,-0.12125375564909378,-0.6385157509320192,0.0,0.6499267939139689,0.0,0.0,0.0,0.6497090269117803,0.01682313278310716,0.0,0.0,0.0,0.0,0.0,0.0,0.37656208402992225,0.0
1709637585.9108772,52,1709637585,895642757,,-1.32998854272827,-0.38685724813869593,0.0,0.0,0.0,-1.7769382191836964,-0.117320623312512,-0.6436379321476154,0.0,0.6542430101680068,0.0,0.0,0.0,0.6540245347919487,0.01690633738779114,0.0,0.0,0.0,0.0,0.0,0.0,0.3790565610323761,0.0
1709637585.9209678,53,1709637585,923301935,,-1.3332774658766635,-0.40783831767188355,0.0,0.0,0.0,-1.7604496793305815,-0.10924260395308949,-0.6559810691946584,0.0,0.6650151198733896,0.0,0.0,0.0,0.6648133438461382,0.016380705245351644,0.0,0.0,0.0,0.0,0.0,0.0,0.3751365405425429,0.0
1709637585.9209678,54,1709637585,920967817,,-1.3332774658766635,-0.40783831767188355,0.0,0.0,0.0,-1.7604496793305815,-0.10924260395308949,-0.6559810691946584,0.0,0.6650151198733896,0.0,0.0,0.0,0.6648133438461382,0.016380705245351644,0.0,0.0,0.0,0.0,0.0,0.0,0.3751365405425429,0.0
1709637585.931056,55,1709637585,932041407,,-1.334152538660034,-0.41307874586560916,0.0,0.0,0.0,-1.7575790294700993,-0.10989392823078697,-0.6580979917551238,0.0,0.6672103433057077,0.0,0.0,0.0,0.6670586802016538,0.014225307790980848,0.0,0.0,0.0,0.0,0.0,0.0,0.3465160010901411,0.0
1709637585.9513562,56,1709637585,932043076,,-1.331380971922895,-0.41562366877583445,0.0,0.0,0.0,-1.7532499469520606,-0.10792503708373916,-0.6573433894456172,0.0,0.6661442375922642,0.0,0.0,0.0,0.6660146933403686,0.013136724558033856,0.0,0.0,0.0,0.0,0.0,0.0,0.32105227783800955,0.0
1709637585.9614418,57,1709637585,956212044,,-1.3345735396107463,-0.41854735072715865,0.0,0.0,0.0,-1.7473049805499163,-0.10520030350677605,-0.6590365892100508,0.0,0.6673801988188854,0.0,0.0,0.0,0.6672694674003349,0.012156794429801544,0.0,0.0,0.0,0.0,0.0,0.0,0.2980642948569929,0.0
1709637585.971525,58,1709637585,973318815,,-1.3347280138528972,-0.4246951593399581,0.0,0.0,0.0,-1.741693953732864,-0.10236577942106383,-0.6629815114860509,0.0,0.670837713138439,0.0,0.0,0.0,0.6707325708713685,0.011876688978634597,0.0,0.0,0.0,0.0,0.0,0.0,0.2854877370923647,0.0
1709637585.971525,59,1709637585,971524954,,-1.335494743626355,-0.43148210722931374,0.0,0.0,0.0,-1.7333677955312596,-0.09763640666833452,-0.6682982463901365,0.0,0.6753927850038346,0.0,0.0,0.0,0.6752893592711137,0.01181927622338507,0.0,0.0,0.0,0.0,0.0,0.0,0.2778633949027014,0.0
1709637585.9816961,60,1709637585,981398344,,-1.3363076273661534,-0.4370904179299603,0.0,0.0,0.0,-1.7310544135769814,-0.0964283359579741,-0.6706267125783542,0.0,0.6775238826781492,0.0,0.0,0.0,0.6774207488364865,0.011821194740309217,0.0,0.0,0.0,0.0,0.0,0.0,0.27471545021934596,0.0
1709637586.0019336,61,1709637585,991767645,,-1.3392401484571026,-0.4424198695963364,0.0,0.0,0.0,-1.7257223576168874,-0.093253031571888,-0.6738620668555365,0.0,0.6802839209066778,0.0,0.0,0.0,0.6801807825413161,0.011845509936082898,0.0,0.0,0.0,0.0,0.0,0.0,0.27278560527992524,0.0
1709637586.0120165,62,1709637586,11344433,,-1.3396803869629381,-0.4545012384257306,0.0,0.0,0.0,-1.715866703436392,-0.08738142411862725,-0.6805275821715703,0.0,0.6861146430278854,0.0,0.0,0.0,0.686011179116558,0.011914927796359056,0.0,0.0,0.0,0.0,0.0,0.0,0.2722823051608033,0.0
1709637586.0120165,63,1709637586,17397165,,-1.339739099875468,-0.45495868129458694,0.0,0.0,0.0,-1.7156838843157962,-0.0873322646446145,-0.6807030154581669,0.0,0.6862823906394498,0.0,0.0,0.0,0.6861798433491136,0.011863485288240138,0.0,0.0,0.0,0.0,0.0,0.0,0.27174269741400797,0.0
1709637586.0220928,64,1709637586,19636393,,-1.3379548367694842,-0.4591523453095468,0.0,0.0,0.0,-1.7105673642842771,-0.0844672348773525,-0.682250950053053,0.0,0.6874598698223185,0.0,0.0,0.0,0.687365254602313,0.01140523483390981,0.0,0.0,0.0,0.0,0.0,0.0,0.2650334172987615,0.0
1709637586.0321581,65,1709637586,32158136,,-1.3382928245945795,-0.46371347115984046,0.0,0.0,0.0,-1.7030425572786316,-0.07980595990591742,-0.6854653503695867,0.0,0.6900954555666956,0.0,0.0,0.0,0.6900033078598296,0.011277097866846216,0.0,0.0,0.0,0.0,0.0,0.0,0.261617292259945,0.0
1709637586.0422807,66,1709637586,42280674,,-1.3390932997188674,-0.47066555373802693,0.0,0.0,0.0,-1.700404522413623,-0.07834086315396496,-0.688116333522083,0.0,0.6925614624707201,0.0,0.0,0.0,0.6924700472195845,0.01125224436675668,0.0,0.0,0.0,0.0,0.0,0.0,0.2598243600610083,0.0
1709637586.0523412,67,1709637586,55988789,,-1.34068767607913,-0.4761254467864765,0.0,0.0,0.0,-1.6890269198233923,-0.07088198780761311,-0.6922755701486534,0.0,0.6958949067353501,0.0,0.0,0.0,0.6958036348570869,0.011270445415665228,0.0,0.0,0.0,0.0,0.0,0.0,0.2590031551993676,0.0
1709637586.0624475,68,1709637586,62447548,,-1.3411422828873938,-0.4806020363153515,0.0,0.0,0.0,-1.6873542038819893,-0.06988883470302383,-0.693930261733572,0.0,0.6974407912975628,0.0,0.0,0.0,0.697349479999498,0.011285393666156935,0.0,0.0,0.0,0.0,0.0,0.0,0.25899535952997704,0.0
1709637586.0725152,69,1709637586,72515249,,-1.341838046974885,-0.48760123458903426,0.0,0.0,0.0,-1.6847455444513117,-0.06832513538655284,-0.6964926172854473,0.0,0.6998359022361766,0.0,0.0,0.0,0.6997444881716993,0.01131111542024052,0.0,0.0,0.0,0.0,0.0,0.0,0.2592768061926117,0.0
1709637586.0825853,70,1709637586,80312729,,-1.340110175470117,-0.4898035226693649,0.0,0.0,0.0,-1.6758487075967905,-0.06222106135606037,-0.6980826140833093,0.0,0.7008500528370253,0.0,0.0,0.0,0.7007585890578356,0.011322385938162033,0.0,0.0,0.0,0.0,0.0,0.0,0.2592804476673566,0.0
1709637586.0926456,71,1709637586,92645645,,-1.3400017373529316,-0.49627208086934416,0.0,0.0,0.0,-1.6711633938361667,-0.059181065540822635,-0.7009576253199886,0.0,0.7034514844769216,0.0,0.0,0.0,0.7033598853751073,0.011351768932664782,0.0,0.0,0.0,0.0,0.0,0.0,0.2600194736608446,0.0
1709637586.1027625,72,1709637586,104010582,,-1.340592168778472,-0.5033762451585017,0.0,0.0,0.0,-1.6685291527801867,-0.05753848288938692,-0.7034660228421883,0.0,0.70581521824527,0.0,0.0,0.0,0.7057234967651186,0.01137841905679043,0.0,0.0,0.0,0.0,0.0,0.0,0.26075549648788315,0.0
1709637586.1128745,73,1709637586,112874508,,-1.3411252557433893,-0.5073756346451709,0.0,0.0,0.0,-1.6605924181846627,-0.05210537412461567,-0.7058298367483824,0.0,0.7077504704745269,0.0,0.0,0.0,0.7076586496881925,0.01140017448981455,0.0,0.0,0.0,0.0,0.0,0.0,0.26138613023001006,0.0
1709637586.122985,74,1709637586,122984886,,-1.342081682119458,-0.5142125196361428,0.0,0.0,0.0,-1.6548674880211807,-0.048285426392825286,-0.70915164827158,0.0,0.7107936005960067,0.0,0.0,0.0,0.7107016278262666,0.011434109205811092,0.0,0.0,0.0,0.0,0.0,0.0,0.2624575389930983,0.0
1709637586.1330955,75,1709637586,133095503,,-1.3425611860415791,-0.5213947874494923,0.0,0.0,0.0,-1.6522097406135101,-0.04656289028907118,-0.7115828684197743,0.0,0.7131046777161021,0.0,0.0,0.0,0.7130125913846681,0.011459751633697909,0.0,0.0,0.0,0.0,0.0,0.0,0.2632779356536155,0.0
1709637586.1431656,76,1709637586,143165588,,-1.3417640249445315,-0.5242716126550977,0.0,0.0,0.0,-1.6440416242984186,-0.04081966359007088,-0.713072817898854,0.0,0.7142402176871719,0.0,0.0,0.0,0.714148075885407,0.011472326311164831,0.0,0.0,0.0,0.0,0.0,0.0,0.2636772527530043,0.0
1709637586.1532621,77,1709637586,153262138,,-1.3408560620776617,-0.5302055768714502,0.0,0.0,0.0,-1.639036198547956,-0.037369422894780034,-0.7153539972642915,0.0,0.7163294040938769,0.0,0.0,0.0,0.7162371620774942,0.011495339432401509,0.0,0.0,0.0,0.0,0.0,0.0,0.2644350167570351,0.0
1709637586.1633408,78,1709637586,163340807,,-1.341223711930346,-0.5374272977248153,0.0,0.0,0.0,-1.6363668767783892,-0.03558343201785674,-0.7177130815515782,0.0,0.718594634035373,0.0,0.0,0.0,0.7185022852695744,0.011520161753674986,0.0,0.0,0.0,0.0,0.0,0.0,0.2652618617275068,0.0
1709637586.1734092,79,1709637586,175668478,,-1.3430491167886875,-0.5404785927751493,0.0,0.0,0.0,-1.6245531324228106,-0.027171528379317404,-0.7196993757313209,0.0,0.7202121099943551,0.0,0.0,0.0,0.720119685779392,0.011537830624119392,0.0,0.0,0.0,0.0,0.0,0.0,0.26585237617322516,0.0
1709637586.1834798,80,1709637586,183395863,,-1.343255801360565,-0.5461073831640496,0.0,0.0,0.0,-1.6224739881839876,-0.025745922640404005,-0.7214888501341025,0.0,0.7219480683542516,0.0,0.0,0.0,0.7218555643781187,0.01155671133077573,0.0,0.0,0.0,0.0,0.0,0.0,0.2664893157779854,0.0
1709637586.1935472,81,1709637586,193547249,,-1.3435056810146195,-0.553382481667059,0.0,0.0,0.0,-1.6197870020155234,-0.02389201995968971,-0.7237772778630294,0.0,0.7241715104645937,0.0,0.0,0.0,0.7240789056538227,0.011580801169766763,0.0,0.0,0.0,0.0,0.0,0.0,0.2673059398016016,0.0
1709637586.2036245,82,1709637586,203624487,,-1.3399832507171185,-0.556508915424026,0.0,0.0,0.0,-1.6151646961634545,-0.02135033070787664,-0.7242365523533763,0.0,0.7245511854838417,0.0,0.0,0.0,0.7244707891510822,0.010793333722653406,0.0,0.0,0.0,0.0,0.0,0.0,0.2575687715282528,0.0
1709637586.2136872,83,1709637586,213687181,,-1.338780385654352,-0.562715762892776,0.0,0.0,0.0,-1.6101908456413838,-0.0186184195074467,-0.7264925501835005,0.0,0.7267310857649348,0.0,0.0,0.0,0.7266621649577487,0.01000844823130479,0.0,0.0,0.0,0.0,0.0,0.0,0.24529808140803738,0.0
1709637586.2237635,84,1709637586,223763466,,-1.338964562426312,-0.5700475111985279,0.0,0.0,0.0,-1.6078047699724163,-0.017808804754552432,-0.728752676737274,0.0,0.7289702445083251,0.0,0.0,0.0,0.7289126005024728,0.009167235529315485,0.0,0.0,0.0,0.0,0.0,0.0,0.22952918933829625,0.0
1709637586.2338295,85,1709637586,233190060,,-1.3399609394428582,-0.5720124330411144,0.0,0.0,0.0,-1.5981310955919419,-0.011471993819084201,-0.7299572795927111,0.0,0.7300474208382469,0.0,0.0,0.0,0.7299981335832035,0.00848302054787741,0.0,0.0,0.0,0.0,0.0,0.0,0.21468466362152014,0.0
1709637586.2439022,86,1709637586,243902206,,-1.3400710751088687,-0.5793762588091756,0.0,0.0,0.0,-1.5960285408702473,-0.010344313941482742,-0.7321724972116691,0.0,0.732245567077119,0.0,0.0,0.0,0.7322004176610244,0.008131351739592101,0.0,0.0,0.0,0.0,0.0,0.0,0.20367448579271527,0.0
1709637586.2540267,87,1709637586,254026651,,-1.3401691940043199,-0.5868002581989546,0.0,0.0,0.0,-1.594003485983387,-0.009022313961403811,-0.7343726432482793,0.0,0.7344280640748164,0.0,0.0,0.0,0.7343842592470506,0.008021288602428144,0.0,0.0,0.0,0.0,0.0,0.0,0.19692698695608513,0.0
1709637586.2641113,88,1709637586,264190674,,-1.340253309147985,-0.5942170813928526,0.0,0.0,0.0,-1.5920397370158927,-0.0077124712287897895,-0.7365406974229717,0.0,0.7365810757634033,0.0,0.0,0.0,0.736538336584889,0.00793472832157366,0.0,0.0,0.0,0.0,0.0,0.0,0.1922946066849515,0.0
1709637586.2843325,89,1709637586,277626991,,-1.3392911339569367,-0.5929972818983136,0.0,0.0,0.0,-1.5816397250998235,-2.4272633392080634e-05,-0.7362323328362593,0.0,0.7362323332363782,0.0,0.0,0.0,0.7361893136167221,0.007958832780057597,0.0,0.0,0.0,0.0,0.0,0.0,0.18950113685241515,0.0
1709637586.3044953,90,1709637586,296504736,,-1.3405783272799858,-0.5994158385239754,0.0,0.0,0.0,-1.575998072191357,0.004026725803086128,-0.7385518674595825,0.0,0.7385628446169832,0.0,0.0,0.0,0.7385209296486483,0.007868412776800782,0.0,0.0,0.0,0.0,0.0,0.0,0.18651279352191139,0.0
1709637586.3145943,91,1709637586,309610128,,-1.338823471676429,-0.6095631942605215,0.0,0.0,0.0,-1.56566518415259,0.011519151187037358,-0.7416775130391758,0.0,0.7417669608388113,0.0,0.0,0.0,0.7417268555346045,0.007713363131250063,0.0,0.0,0.0,0.0,0.0,0.0,0.18070763682553384,0.0
1709637586.324669,92,1709637586,314594269,,-1.338703517571552,-0.61706394536247,0.0,0.0,0.0,-1.5638804121379943,0.012675189391120252,-0.7437561258919558,0.0,0.7438641241704775,0.0,0.0,0.0,0.7438259989106758,0.007531173377832585,0.0,0.0,0.0,0.0,0.0,0.0,0.17721436955621508,0.0
1709637586.334748,93,1709637586,333154678,,-1.336040594870404,-0.6219371819105798,0.0,0.0,0.0,-1.5598593468217687,0.014973975524937047,-0.7450432104125784,0.0,0.7451936696758117,0.0,0.0,0.0,0.7451624175476156,0.006824719737532201,0.0,0.0,0.0,0.0,0.0,0.0,0.16752893049045994,0.0
1709637586.3548837,94,1709637586,351888895,,-1.338214886357933,-0.6334612296521616,0.0,0.0,0.0,-1.5470692040636869,0.02426828347879321,-0.7487372278426171,0.0,0.7491304198472081,0.0,0.0,0.0,0.7491022395668053,0.0064977393338559964,0.0,0.0,0.0,0.0,0.0,0.0,0.15761715482003016,0.0
1709637586.365059,95,1709637586,351889610,,-1.3348707612872581,-0.6371553489188121,0.0,0.0,0.0,-1.5431021111002046,0.027243255040641182,-0.7495648012207836,0.0,0.7500597217384508,0.0,0.0,0.0,0.750031757031806,0.006476852487450003,0.0,0.0,0.0,0.0,0.0,0.0,0.15544758564263164,0.0
1709637586.375171,96,1709637586,365058899,,-1.334577984701549,-0.6421477821347179,0.0,0.0,0.0,-1.5351684267740455,0.03325555157385887,-0.7511482939556059,0.0,0.7518840942744426,0.0,0.0,0.0,0.7518561851908961,0.006478272384808565,0.0,0.0,0.0,0.0,0.0,0.0,0.15418273206738983,0.0
1709637586.375171,97,1709637586,375170946,,-1.3342353707100756,-0.64975339765252,0.0,0.0,0.0,-1.5336127870560927,0.03450872381405093,-0.7531169598731264,0.0,0.7539071609076375,0.0,0.0,0.0,0.7538792450562551,0.006487768585993009,0.0,0.0,0.0,0.0,0.0,0.0,0.1535756671987641,0.0
1709637586.3954566,98,1709637586,395659208,,-1.3379233350163435,-0.6544611071344281,0.0,0.0,0.0,-1.528244632984082,0.03861280163346292,-0.7541970190726623,0.0,0.7551848065394821,0.0,0.0,0.0,0.7551568742691468,0.00649517298667566,0.0,0.0,0.0,0.0,0.0,0.0,0.15318701012526695,0.0
1709637586.4055307,99,1709637586,395456553,,-1.335415286384118,-0.6597452470128322,0.0,0.0,0.0,-1.5243248221580212,0.041642560697751574,-0.755442103537031,0.0,0.7565889733917089,0.0,0.0,0.0,0.7565610196532511,0.006503706570346535,0.0,0.0,0.0,0.0,0.0,0.0,0.15306538064173225,0.0
1709637586.4156055,100,1709637586,412518978,,-1.3349980662935799,-0.6672118417978095,0.0,0.0,0.0,-1.5228131937161442,0.042888809663640684,-0.7573157295407121,0.0,0.7585292111739305,0.0,0.0,0.0,0.7585012319617018,0.006515007039572101,0.0,0.0,0.0,0.0,0.0,0.0,0.15321401569599677,0.0
1709637586.4258597,101,1709637586,423685074,,-1.3308595228872357,-0.6711978062003917,0.0,0.0,0.0,-1.5182208760605815,0.046426865583467876,-0.7581455992242399,0.0,0.7595657993031196,0.0,0.0,0.0,0.7595378048856528,0.006521228448005476,0.0,0.0,0.0,0.0,0.0,0.0,0.15326484941056046,0.0
1709637586.4359903,102,1709637586,425859690,,-1.331461487319139,-0.6749155765489927,0.0,0.0,0.0,-1.509648816893484,0.05300725561630689,-0.7589634330762506,0.0,0.7608122382656977,0.0,0.0,0.0,0.7607842283783671,0.006528380012941687,0.0,0.0,0.0,0.0,0.0,0.0,0.15341553276122388,0.0
1709637586.4359903,103,1709637586,435990334,,-1.3309178379268547,-0.6826138601040282,0.0,0.0,0.0,-1.5080929548801196,0.0543216886526649,-0.7608351945469378,0.0,0.7627719443708937,0.0,0.0,0.0,0.7627439132629652,0.006539258341118493,0.0,0.0,0.0,0.0,0.0,0.0,0.15374821674213177,0.0
1709637586.4561925,104,1709637586,448362350,,-1.3303614316531467,-0.6903228376538054,0.0,0.0,0.0,-1.50653526761442,0.05564220367222537,-0.7626881535934436,0.0,0.7647151590371919,0.0,0.0,0.0,0.7646871078051092,0.006549932666448187,0.0,0.0,0.0,0.0,0.0,0.0,0.15410015244248257,0.0
1709637586.4561925,105,1709637586,448363066,,-1.326826061416539,-0.6952970130462534,0.0,0.0,0.0,-1.5020891337180078,0.059131744499959206,-0.7637663391349545,0.0,0.7660519460214292,0.0,0.0,0.0,0.7660238810143385,0.006557264593515466,0.0,0.0,0.0,0.0,0.0,0.0,0.1543443855729983,0.0
1709637586.4662757,106,1709637586,466275692,,-1.3308615923222358,-0.6991572296365112,0.0,0.0,0.0,-1.4962124404915775,0.06369305367130712,-0.764327690052528,0.0,0.7669769376369862,0.0,0.0,0.0,0.7669488635012527,0.006562289322039979,0.0,0.0,0.0,0.0,0.0,0.0,0.1545147385197323,0.0
1709637586.4763615,107,1709637586,477077723,,-1.3302124054765265,-0.7068751889547249,0.0,0.0,0.0,-1.4946521522490033,0.06504075987088269,-0.7661268449804068,0.0,0.768882723855995,0.0,0.0,0.0,0.7688546315881938,0.00657255883176457,0.0,0.0,0.0,0.0,0.0,0.0,0.1548878316488101,0.0
1709637586.4864542,108,1709637586,486454248,,-1.3241196086431535,-0.7092985357151296,0.0,0.0,0.0,-1.4874329726206115,0.07064069649693033,-0.7664334774870224,0.0,0.7696820014879012,0.0,0.0,0.0,0.7696539013656539,0.006576893419371635,0.0,0.0,0.0,0.0,0.0,0.0,0.15504233511174767,0.0
1709637586.4965358,109,1709637586,496535778,,-1.32340054639567,-0.717034272956728,0.0,0.0,0.0,-1.4858680196595633,0.072009957591872,-0.7681993845187647,0.0,0.771567060188155,0.0,0.0,0.0,0.7715389429776538,0.006586944383908354,0.0,0.0,0.0,0.0,0.0,0.0,0.15541691090741142,0.0
1709637586.5167031,110,1709637586,508963108,,-1.3294296062217177,-0.7193566237971954,0.0,0.0,0.0,-1.4806503584352877,0.07604774682178204,-0.7681327732898244,0.0,0.7718880859286447,0.0,0.0,0.0,0.771859965983356,0.00658863496933282,0.0,0.0,0.0,0.0,0.0,0.0,0.15547890645578405,0.0
1709637586.5167031,111,1709637586,508963823,,-1.3254781378749505,-0.7235146864635114,0.0,0.0,0.0,-1.4756380991321192,0.08001051826436432,-0.7688690247195896,0.0,0.7730208666046376,0.0,0.0,0.0,0.7729927361929564,0.006594694770159163,0.0,0.0,0.0,0.0,0.0,0.0,0.1557048564852915,0.0
1709637586.5267918,112,1709637586,527398825,,-1.3265905548405965,-0.7296858004906771,0.0,0.0,0.0,-1.4712733401213396,0.08369026982193091,-0.7700721472006271,0.0,0.7746064634103255,0.0,0.0,0.0,0.7745769418235126,0.006762717825458628,0.0,0.0,0.0,0.0,0.0,0.0,0.15777758612559536,0.0
1709637586.536856,113,1709637586,536855936,,-1.321794256826867,-0.7331216778743492,0.0,0.0,0.0,-1.466479197881767,0.08773486607071965,-0.7705590832855175,0.0,0.7755376893215855,0.0,0.0,0.0,0.7755059066954538,0.007021128023775298,0.0,0.0,0.0,0.0,0.0,0.0,0.16195362964059765,0.0
1709637586.5469475,114,1709637586,546947479,,-1.3196343660242928,-0.7401237637044664,0.0,0.0,0.0,-1.4620289949663836,0.091466361911992,-0.7719834483710445,0.0,0.7773831358604743,0.0,0.0,0.0,0.7773504859704151,0.0071247373161393785,0.0,0.0,0.0,0.0,0.0,0.0,0.16495047327657267,0.0
1709637586.557014,115,1709637586,557013988,,-1.3187047730186345,-0.747903302722098,0.0,0.0,0.0,-1.4603454338490462,0.09337026203343549,-0.7736522094291568,0.0,0.779266159272176,0.0,0.0,0.0,0.7792298318692574,0.0075243678682767375,0.0,0.0,0.0,0.0,0.0,0.0,0.17117893712138432,0.0
1709637586.567078,116,1709637586,567816496,,-1.3223210649567343,-0.7480941342580458,0.0,0.0,0.0,-1.4533611295814866,0.09909223746247654,-0.7729845301135249,0.0,0.779310179145728,0.0,0.0,0.0,0.7792707156396791,0.00784264410572482,0.0,0.0,0.0,0.0,0.0,0.0,0.17773545521239667,0.0
1709637586.5771618,117,1709637586,577161789,,-1.3215837403909756,-0.7556233595459043,0.0,0.0,0.0,-1.4485330210659044,0.1031990877025889,-0.7745046030225742,0.0,0.7813497499876747,0.0,0.0,0.0,0.7813090908439122,0.00797097048427604,0.0,0.0,0.0,0.0,0.0,0.0,0.18245665920661838,0.0
1709637586.5872304,118,1709637586,587230444,,-1.3205353317833683,-0.7634294972234459,0.0,0.0,0.0,-1.4466712266582393,0.10526690582808909,-0.7760696619504458,0.0,0.7831763796632908,0.0,0.0,0.0,0.7831316045196252,0.008374465058523932,0.0,0.0,0.0,0.0,0.0,0.0,0.18956655141951864,0.0
1709637586.597323,119,1709637586,599402428,,-1.3187172297050211,-0.7643562701467238,0.0,0.0,0.0,-1.4394970359366985,0.11137864832452471,-0.7755876973504889,0.0,0.7835441784507315,0.0,0.0,0.0,0.7834938781976405,0.00887819862656317,0.0,0.0,0.0,0.0,0.0,0.0,0.1993153213312562,0.0
1709637586.6074085,120,1709637586,607408524,,-1.3175661863806982,-0.7698781442782547,0.0,0.0,0.0,-1.432880592530097,0.117226487663183,-0.7762824962554643,0.0,0.785083793873279,0.0,0.0,0.0,0.7850276266242212,0.009390891289094613,0.0,0.0,0.0,0.0,0.0,0.0,0.2100778861935917,0.0
1709637586.6174746,121,1709637586,617474556,,-1.3164100899019138,-0.7774551742353432,0.0,0.0,0.0,-1.4307638878862876,0.12009756813635435,-0.7776452725460973,0.0,0.7868644074969716,0.0,0.0,0.0,0.7867959141668668,0.01038196686011987,0.0,0.0,0.0,0.0,0.0,0.0,0.2266568797700809,0.0
1709637586.6276152,122,1709637586,628406286,,-1.3122729413405,-0.7830234323466659,0.0,0.0,0.0,-1.42624916750366,0.12568488872759892,-0.7780700148678809,0.0,0.7881558470829061,0.0,0.0,0.0,0.7880599018013038,0.012297579594891028,0.0,0.0,0.0,0.0,0.0,0.0,0.25873421608983316,0.0
1709637586.6377017,123,1709637586,637701750,,-1.3134673864046709,-0.7882917533716838,0.0,0.0,0.0,-1.4210959302570851,0.1307588060828471,-0.7783695785663861,0.0,0.7892762926921251,0.0,0.0,0.0,0.7891657570136734,0.01320886682727688,0.0,0.0,0.0,0.0,0.0,0.0,0.28095591978713413,0.0
1709637586.6478217,124,1709637586,647821665,,-1.3121240573073067,-0.7961736193288604,0.0,0.0,0.0,-1.4181019080951032,0.13469743092964803,-0.7793248180216389,0.0,0.7908796178202521,0.0,0.0,0.0,0.7907449643135407,0.014593536113129787,0.0,0.0,0.0,0.0,0.0,0.0,0.31035977350091737,0.0
1709637586.657913,125,1709637586,657912970,,-1.3235774751780578,-0.7982304362581212,0.0,0.0,0.0,-1.4337083574475558,0.12356935843084793,-0.7797818186308679,0.0,0.7895119194858778,0.0,0.0,0.0,0.7893528867860122,0.015845855384426517,0.0,0.0,0.0,0.0,0.0,0.0,0.33901345960380114,0.0
1709637586.6680021,126,1709637586,668002129,,-1.3194191851511794,-0.803531698134436,0.0,0.0,0.0,-1.4270450630731943,0.13011868866588783,-0.7800629303888973,0.0,0.7908407225902342,0.0,0.0,0.0,0.790657395826127,0.01702735835327759,0.0,0.0,0.0,0.0,0.0,0.0,0.36736974111527376,0.0
1709637586.6781085,127,1709637586,678108454,,-1.3180836530091704,-0.8114199771117958,0.0,0.0,0.0,-1.4232065012735067,0.13409211507984078,-0.7810138824641302,0.0,0.7924414047286269,0.0,0.0,0.0,0.7922418555223358,0.0177826400403805,0.0,0.0,0.0,0.0,0.0,0.0,0.3906943753529381,0.0
1709637586.6882162,128,1709637586,688738346,,-1.3167095647003477,-0.819319536958318,0.0,0.0,0.0,-1.4191735409448798,0.13777957679067282,-0.7820925799821271,0.0,0.7941360182259187,0.0,0.0,0.0,0.7939304145464601,0.01806965140236115,0.0,0.0,0.0,0.0,0.0,0.0,0.40626576892958743,0.0
1709637586.6983047,129,1709637586,699732780,,-1.311770366241831,-0.8212112115316356,0.0,0.0,0.0,-1.408200204231775,0.14646610789461512,-0.7814794538590711,0.0,0.7950864465991537,0.0,0.0,0.0,0.7948820371243515,0.01802788458777396,0.0,0.0,0.0,0.0,0.0,0.0,0.4146434128331443,0.0
1709637586.7083678,130,1709637586,708367825,,-1.3079259760946749,-0.8266531269651493,0.0,0.0,0.0,-1.4015003403354638,0.15200205853221754,-0.781897981301083,0.0,0.7965356733761148,0.0,0.0,0.0,0.7963302679755091,0.01808820794867169,0.0,0.0,0.0,0.0,0.0,0.0,0.42106988580231575,0.0
1709637586.7184305,131,1709637586,718430519,,-1.3068898679337868,-0.8300297422783643,0.0,0.0,0.0,-1.3928820463460538,0.15902494536397882,-0.7816357518214243,0.0,0.7976486581029644,0.0,0.0,0.0,0.7974413824253702,0.018183051695857117,0.0,0.0,0.0,0.0,0.0,0.0,0.42654172790928824,0.0
1709637586.7284985,132,1709637586,728498459,,-1.3064370788176884,-0.8366564100531849,0.0,0.0,0.0,-1.3867530918495035,0.16415440368603654,-0.7822361858117759,0.0,0.7992747454054041,0.0,0.0,0.0,0.7990668627345578,0.018228206780283814,0.0,0.0,0.0,0.0,0.0,0.0,0.4302905419095062,0.0
1709637586.738574,133,1709637586,739296436,,-1.304764256872882,-0.8445427260736434,0.0,0.0,0.0,-1.3824023259909817,0.16791038429897304,-0.7832180758593846,0.0,0.8010146387603073,0.0,0.0,0.0,0.8008065489645734,0.018257125835025447,0.0,0.0,0.0,0.0,0.0,0.0,0.4332042652225916,0.0
1709637586.7486804,134,1709637586,748680353,,-1.3030491635876285,-0.8524629166304746,0.0,0.0,0.0,-1.3780234911256406,0.17150929408365065,-0.7841398806637067,0.0,0.8026772641631033,0.0,0.0,0.0,0.802473029368705,0.018106008399915295,0.0,0.0,0.0,0.0,0.0,0.0,0.4332176515396088,0.0
1709637586.758785,135,1709637586,758785009,,-1.3000095770520743,-0.8507578718191104,0.0,0.0,0.0,-1.3711366092527788,0.17683485732390458,-0.7829723194472913,0.0,0.8026931043589679,0.0,0.0,0.0,0.802490575456027,0.018030421228897274,0.0,0.0,0.0,0.0,0.0,0.0,0.43248195669556444,0.0
1709637586.7688847,136,1709637586,768884659,,-1.2982047342654612,-0.8586698119213737,0.0,0.0,0.0,-1.366767010977172,0.18057840769064343,-0.7837965140343583,0.0,0.804329246475907,0.0,0.0,0.0,0.8041273048674853,0.018022605334819187,0.0,0.0,0.0,0.0,0.0,0.0,0.4328480120896195,0.0
1709637586.7789912,137,1709637586,778991222,,-1.2997978153958538,-0.861072636599441,0.0,0.0,0.0,-1.3614039846922705,0.1848930509249286,-0.7833681757722789,0.0,0.8048920046149771,0.0,0.0,0.0,0.8046902794219291,0.018019247958060567,0.0,0.0,0.0,0.0,0.0,0.0,0.43281086600061586,0.0
1709637586.7890623,138,1709637586,789062262,,-1.2990003078358903,-0.8681319110657483,0.0,0.0,0.0,-1.3557063127402182,0.1897631238464731,-0.7838824920065994,0.0,0.8065245219126622,0.0,0.0,0.0,0.8063217959000913,0.018082198508470305,0.0,0.0,0.0,0.0,0.0,0.0,0.43391738808193686,0.0
1709637586.799147,139,1709637586,799146891,,-1.297066773110902,-0.8760405057501279,0.0,0.0,0.0,-1.3513171642321695,0.1936296336975534,-0.7845795628481907,0.0,0.8081197469960173,0.0,0.0,0.0,0.8079155647518657,0.018164958480020265,0.0,0.0,0.0,0.0,0.0,0.0,0.43581589098706447,0.0
1709637586.8092155,140,1709637586,809215546,,-1.292351226115907,-0.880593003561268,0.0,0.0,0.0,-1.346614795714224,0.19751532512076292,-0.7847712175556892,0.0,0.8092454309796254,0.0,0.0,0.0,0.8090427312059589,0.01811150585131493,0.0,0.0,0.0,0.0,0.0,0.0,0.4357792635037206,0.0
1709637586.819292,141,1709637586,820551872,,-1.2903418510912394,-0.8885041620110171,0.0,0.0,0.0,-1.3422217209830791,0.2013134161486637,-0.7854383789848367,0.0,0.8108270707763604,0.0,0.0,0.0,0.8106249053599494,0.018105289667554394,0.0,0.0,0.0,0.0,0.0,0.0,0.4361908560080456,0.0
1709637586.8293839,142,1709637586,831354618,,-1.28608645394068,-0.8942760799025044,0.0,0.0,0.0,-1.3369620405701053,0.20578351127014954,-0.7857606762088348,0.0,0.8122602377236233,0.0,0.0,0.0,0.8120582082238956,0.018115193706755534,0.0,0.0,0.0,0.0,0.0,0.0,0.43665807863575745,0.0
1709637586.8495564,143,1709637586,835942984,,-1.2831586051773851,-0.9053180662485313,0.0,0.0,0.0,-1.3308228520413965,0.21114650272559188,-0.7866064918896306,0.0,0.8144523428023028,0.0,0.0,0.0,0.8142503542735289,0.018137785465503178,0.0,0.0,0.0,0.0,0.0,0.0,0.4375858637446037,0.0
1709637586.8495564,144,1709637586,851368904,,-1.290758805544692,-0.8980854808317659,0.0,0.0,0.0,-1.3289427298801189,0.2124004499223446,-0.7848320350500265,0.0,0.8130653567628993,0.0,0.0,0.0,0.8128605275797021,0.018249303297085975,0.0,0.0,0.0,0.0,0.0,0.0,0.4382777719406621,0.0
1709637586.8699002,145,1709637586,867874861,,-1.2902562095467098,-0.9048418250380988,0.0,0.0,0.0,-1.3252103031168743,0.2157754692248579,-0.7853236612551291,0.0,0.8144275941091192,0.0,0.0,0.0,0.8142204055153225,0.01836946620977462,0.0,0.0,0.0,0.0,0.0,0.0,0.44076458375477373,0.0
1709637586.879982,146,1709637586,871790886,,-1.285047224521958,-0.9090275691738217,0.0,0.0,0.0,-1.3204499085473083,0.2197848569705238,-0.7854795733362657,0.0,0.8156491546505003,0.0,0.0,0.0,0.8154429613104784,0.01833903845007055,0.0,0.0,0.0,0.0,0.0,0.0,0.44150580360055597,0.0
1709637586.890094,147,1709637586,879981995,,-1.2850974239603623,-0.9137619031863091,0.0,0.0,0.0,-1.31460301575978,0.22458090881632606,-0.7853639105612786,0.0,0.8168433488845159,0.0,0.0,0.0,0.8166396802817878,0.018239769903439975,0.0,0.0,0.0,0.0,0.0,0.0,0.4409390412772702,0.0
1709637586.9001846,148,1709637586,901172638,,-1.2828067459121764,-0.9217066308818916,0.0,0.0,0.0,-1.3101441341688531,0.2284860936810036,-0.7859676232117356,0.0,0.8185053449689313,0.0,0.0,0.0,0.8183026196437905,0.018215993709351834,0.0,0.0,0.0,0.0,0.0,0.0,0.44100888050494336,0.0
1709637586.910411,149,1709637586,901173353,,-1.2872531655146777,-0.9256849091225541,0.0,0.0,0.0,-1.3052466129880629,0.2325415944155423,-0.7856360521350709,0.0,0.8193287493721323,0.0,0.0,0.0,0.8191263943743113,0.018208503152169122,0.0,0.0,0.0,0.0,0.0,0.0,0.44085994151751023,0.0
1709637586.9205046,150,1709637586,901180029,,-1.2824999781169653,-0.9293577925627735,0.0,0.0,0.0,-1.3006495806164886,0.23645548799672467,-0.7856265422703665,0.0,0.8204390664293486,0.0,0.0,0.0,0.8202367910232666,0.01821725487869271,0.0,0.0,0.0,0.0,0.0,0.0,0.4411311861241891,0.0
1709637586.9406493,151,1709637586,931782007,,-1.2826806621827067,-0.9354460752865269,0.0,0.0,0.0,-1.2962879386749502,0.2402323955560397,-0.7857890909497055,0.0,0.8216909999082126,0.0,0.0,0.0,0.8214887290426764,0.0182309458341136,0.0,0.0,0.0,0.0,0.0,0.0,0.44156448672938625,0.0
1709637586.9608278,152,1709637586,959898233,,-1.2758456306074573,-0.9426435125541657,0.0,0.0,0.0,-1.2866683463746174,0.2484032441731061,-0.7854823443892625,0.0,0.8238244261145548,0.0,0.0,0.0,0.823622100398474,0.018257075291005127,0.0,0.0,0.0,0.0,0.0,0.0,0.442449301787477,0.0
1709637586.9709356,153,1709637586,959898949,,-1.276179810268025,-0.9565197151659219,0.0,0.0,0.0,-1.2775474831380078,0.25638305004673345,-0.7858015209378406,0.0,0.8265689920747629,0.0,0.0,0.0,0.8263665845999405,0.018291159507227518,0.0,0.0,0.0,0.0,0.0,0.0,0.44379740533671164,0.0
1709637586.981025,154,1709637586,970935583,,-1.2723537021969085,-0.9584773975290913,0.0,0.0,0.0,-1.2739381886862002,0.25944454443003684,-0.7855814657351504,0.0,0.8273147592912246,0.0,0.0,0.0,0.8271123298761234,0.01830040185317203,0.0,0.0,0.0,0.0,0.0,0.0,0.4441767827400745,0.0
1709637586.9911337,155,1709637586,981024981,,-1.2697158627066898,-0.9664051022088092,0.0,0.0,0.0,-1.269452569923823,0.26345061315460994,-0.785905047347711,0.0,0.8288865839293986,0.0,0.0,0.0,0.8286841136534275,0.01831962872389035,0.0,0.0,0.0,0.0,0.0,0.0,0.4449981575700835,0.0
1709637586.9911337,156,1709637586,993200302,,-1.2670323851491487,-0.9743510823903296,0.0,0.0,0.0,-1.2649500536769709,0.26747502185501826,-0.7861950190699059,0.0,0.8304489721389703,0.0,0.0,0.0,0.8302464634533716,0.018338627261642232,0.0,0.0,0.0,0.0,0.0,0.0,0.44582079536642216,0.0
1709637587.0213974,157,1709637586,993207693,,-1.2626476086773744,-0.9838789718734262,0.0,0.0,0.0,-1.2549996659390947,0.2760409219660128,-0.7857181220074404,0.0,0.8327974290610806,0.0,0.0,0.0,0.8325948660915962,0.018367003257541852,0.0,0.0,0.0,0.0,0.0,0.0,0.4470614829768711,0.0
1709637587.0213974,158,1709637587,19758463,,-1.2647379566029144,-0.9766978504257755,0.0,0.0,0.0,-1.255501370006568,0.27532789636322624,-0.7849175118978889,0.0,0.8318058373200876,0.0,0.0,0.0,0.8316032954783552,0.018355106900026834,0.0,0.0,0.0,0.0,0.0,0.0,0.4465319910698089,0.0
1709637587.0338478,159,1709637587,31662226,,-1.2616413465968672,-0.9816276979757579,0.0,0.0,0.0,-1.2512934327682392,0.27899564669498456,-0.7848189988782955,0.0,0.83293423022174,0.0,0.0,0.0,0.8327316632296851,0.018368694286882287,0.0,0.0,0.0,0.0,0.0,0.0,0.4471323327719692,0.0
1709637587.0439374,160,1709637587,33847809,,-1.2584951325957314,-0.9899489837892902,0.0,0.0,0.0,-1.2457821563551505,0.283876743573653,-0.7848679117444222,0.0,0.8346278478627656,0.0,0.0,0.0,0.8344252456912236,0.01838895813179341,0.0,0.0,0.0,0.0,0.0,0.0,0.44803437405363145,0.0
1709637587.0439374,161,1709637587,43937445,,-1.2556104693956311,-0.9978687212716691,0.0,0.0,0.0,-1.2412575748043169,0.2879320170727031,-0.7850021540749599,0.0,0.8361418709512652,0.0,0.0,0.0,0.8359392390393295,0.01840698215974203,0.0,0.0,0.0,0.0,0.0,0.0,0.448841721807219,0.0
1709637587.0540323,162,1709637587,59852600,,-1.259246837847948,-1.0013459162224323,0.0,0.0,0.0,-1.2378086722322956,0.2908657788767866,-0.7846395391045878,0.0,0.8368166511535606,0.0,0.0,0.0,0.8366140074884418,0.01841494289943005,0.0,0.0,0.0,0.0,0.0,0.0,0.4492014261110009,0.0
1709637587.0742264,163,1709637587,64090729,,-1.255972466857274,-1.0062242549504863,0.0,0.0,0.0,-1.2318354311287256,0.2959810004860792,-0.78407298114157,0.0,0.8380782734357031,0.0,0.0,0.0,0.8378756060238,0.018429900575398273,0.0,0.0,0.0,0.0,0.0,0.0,0.4498747863390443,0.0
1709637587.0742264,164,1709637587,74226379,,-1.2529517623670166,-1.0141715828636648,0.0,0.0,0.0,-1.2272716123436962,0.3000758172577038,-0.7841141876365573,0.0,0.839571649923827,0.0,0.0,0.0,0.8393689564515867,0.01844750121809165,0.0,0.0,0.0,0.0,0.0,0.0,0.4506719474809554,0.0
1709637587.0944674,165,1709637587,87862492,,-1.2472758101633672,-1.0189393422071062,0.0,0.0,0.0,-1.2222405824364326,0.3044641350670794,-0.7837816276422579,0.0,0.8408400854928908,0.0,0.0,0.0,0.840637370498549,0.01846241297818508,0.0,0.0,0.0,0.0,0.0,0.0,0.4513492530774451,0.0
1709637587.1045508,166,1709637587,94467402,,-1.2478295443039642,-1.0224599239198626,0.0,0.0,0.0,-1.2166928137810986,0.30913796055493825,-0.7829428721744179,0.0,0.8417635177083843,0.0,0.0,0.0,0.8415607888712918,0.01847317999486099,0.0,0.0,0.0,0.0,0.0,0.0,0.4518423887106535,0.0
1709637587.1146584,167,1709637587,111762762,,-1.2446917363232337,-1.030354404901085,0.0,0.0,0.0,-1.2121327639511972,0.3132320784262714,-0.7828827763852222,0.0,0.8432198862194106,0.0,0.0,0.0,0.8430171359436366,0.018490133078586046,0.0,0.0,0.0,0.0,0.0,0.0,0.4526199824268693,0.0
1709637587.1247392,168,1709637587,119726658,,-1.2485977143893738,-1.0335243286326024,0.0,0.0,0.0,-1.207564149311364,0.3170608420086178,-0.7820927364887313,0.0,0.8439174284274771,0.0,0.0,0.0,0.8437146693513244,0.01849818166823871,0.0,0.0,0.0,0.0,0.0,0.0,0.4529925915310776,0.0
1709637587.134832,169,1709637587,124739170,,-1.2447419969358988,-1.037183239140732,0.0,0.0,0.0,-1.202154432443563,0.32169109936680795,-0.7813769164134619,0.0,0.8450059460830057,0.0,0.0,0.0,0.8448031717304222,0.01851080629941238,0.0,0.0,0.0,0.0,0.0,0.0,0.4535739155963235,0.0
1709637587.1449125,170,1709637587,143730879,,-1.2414744988365305,-1.045068716796737,0.0,0.0,0.0,-1.1975727681049668,0.3258051282267386,-0.7812220136540392,0.0,0.8464377213927281,0.0,0.0,0.0,0.8462349290084479,0.01852730748329946,0.0,0.0,0.0,0.0,0.0,0.0,0.45433837531081667,0.0
1709637587.1550016,171,1709637587,149466991,,-1.2347786328263834,-1.0487571145900354,0.0,0.0,0.0,-1.1925592737576716,0.3301608863215122,-0.7806577988327498,0.0,0.847604158634796,0.0,0.0,0.0,0.8474013517397242,0.018540733661014205,0.0,0.0,0.0,0.0,0.0,0.0,0.454961346708281,0.0
1709637587.165089,172,1709637587,164313316,,-1.238064942921309,-1.0518650638598668,0.0,0.0,0.0,-1.1895091002958342,0.33277999780224804,-0.7802254596995979,0.0,0.8482300954933827,0.0,0.0,0.0,0.8480272830226483,0.018547834103696405,0.0,0.0,0.0,0.0,0.0,0.0,0.4552956717922582,0.0
1709637587.175193,173,1709637587,171797991,,-1.2328357654134936,-1.0574323042989036,0.0,0.0,0.0,-1.184259412240391,0.33737292037621747,-0.7796608726299433,0.0,0.8495243161400751,0.0,0.0,0.0,0.8493214897478226,0.01856261742862444,0.0,0.0,0.0,0.0,0.0,0.0,0.4559867276546903,0.0
1709637587.185282,174,1709637587,171798468,,-1.235576925564733,-1.0611179208138832,0.0,0.0,0.0,-1.181751575506916,0.3395896658919732,-0.7794327300039757,0.0,0.8501979309443611,0.0,0.0,0.0,0.8499950990229527,0.01857022937482014,0.0,0.0,0.0,0.0,0.0,0.0,0.4563464800132761,0.0
1709637587.1953776,175,1709637587,185281992,,-1.2299998961015122,-1.0661782043176646,0.0,0.0,0.0,-1.1764077030774869,0.34424512260355516,-0.778759475548953,0.0,0.8514523035341539,0.0,0.0,0.0,0.851249459513289,0.018584479329545132,0.0,0.0,0.0,0.0,0.0,0.0,0.4570162529258763,0.0
1709637587.205505,176,1709637587,202090263,,-1.2265036284379107,-1.0740385987461105,0.0,0.0,0.0,-1.1717901265189081,0.3483880368696719,-0.7784274776310364,0.0,0.8528326694990768,0.0,0.0,0.0,0.8526298144312245,0.0186000459111535,0.0,0.0,0.0,0.0,0.0,0.0,0.4577532007151208,0.0
1709637587.2157788,177,1709637587,215370417,,-1.223936705201715,-1.0755076309760465,0.0,0.0,0.0,-1.1663634493294022,0.3529743360329997,-0.7773572546135807,0.0,0.8537418715269273,0.0,0.0,0.0,0.8535390094479646,0.01861028073103438,0.0,0.0,0.0,0.0,0.0,0.0,0.4582389002717785,0.0
1709637587.225872,178,1709637587,215778828,,-1.2212302317162853,-1.0814406039856719,0.0,0.0,0.0,-1.162863272168845,0.3561222796727075,-0.777053417517248,0.0,0.8547719530696598,0.0,0.0,0.0,0.8545688447382741,0.018632803256950534,0.0,0.0,0.0,0.0,0.0,0.0,0.4589007530491361,0.0
1709637587.2460713,179,1709637587,236030340,,-1.2176139241801542,-1.08928093810981,0.0,0.0,0.0,-1.158215549188174,0.36044012109977963,-0.7765366376928379,0.0,0.8561111087807012,0.0,0.0,0.0,0.8559041442625471,0.018823560022443436,0.0,0.0,0.0,0.0,0.0,0.0,0.4619182336377398,0.0
1709637587.25616,180,1709637587,259739161,,-1.2183828141666926,-1.0950589937526412,0.0,0.0,0.0,-1.150625800204611,0.36703206754549744,-0.7750870753991779,0.0,0.8575969409096406,0.0,0.0,0.0,0.8573878401795857,0.01893685744147368,0.0,0.0,0.0,0.0,0.0,0.0,0.4653670948561963,0.0
1709637587.2763443,181,1709637587,271435261,,-1.2079852788295156,-1.1082268758444003,0.0,0.0,0.0,-1.1375516584532206,0.3783936569623951,-0.7728395939169678,0.0,0.8605014802747978,0.0,0.0,0.0,0.8602921048865924,0.018981354664897306,0.0,0.0,0.0,0.0,0.0,0.0,0.46831426888161126,0.0
1709637587.286434,182,1709637587,279367208,,-1.2061226237152096,-1.112020185393105,0.0,0.0,0.0,-1.1352514208697968,0.3804740838228974,-0.7725978933327465,0.0,0.8612015055973086,0.0,0.0,0.0,0.8609920964961614,0.018990603313633614,0.0,0.0,0.0,0.0,0.0,0.0,0.4688250675070344,0.0
1709637587.286434,183,1709637587,286433935,,-1.202262194770234,-1.119812806001865,0.0,0.0,0.0,-1.130516145766794,0.38475332025068104,-0.7720743199597992,0.0,0.8626319452613088,0.0,0.0,0.0,0.862422507956509,0.019007649915621597,0.0,0.0,0.0,0.0,0.0,0.0,0.4698018960806361,0.0
1709637587.3066206,184,1709637587,295939922,,-1.2107414963392138,-1.1192552181759614,0.0,0.0,0.0,-1.1273598611093711,0.3873246392136609,-0.7711350667202541,0.0,0.862942447251057,0.0,0.0,0.0,0.8627330088768144,0.019011119430529237,0.0,0.0,0.0,0.0,0.0,0.0,0.4701066834101181,0.0
1709637587.3167691,185,1709637587,306620598,,-1.2047292373488394,-1.1235330255416092,0.0,0.0,0.0,-1.1216616322338666,0.39227947962661686,-0.7700599347934208,0.0,0.8642195862801171,0.0,0.0,0.0,0.8640101513050353,0.019025029619602816,0.0,0.0,0.0,0.0,0.0,0.0,0.47088869541592104,0.0
1709637587.3167691,186,1709637587,316769123,,-1.20072629853302,-1.131344882256133,0.0,0.0,0.0,-1.1168785856866812,0.3965922802225662,-0.7694396528950416,0.0,0.8656343432300827,0.0,0.0,0.0,0.8654249151516461,0.019040283982721205,0.0,0.0,0.0,0.0,0.0,0.0,0.47171539473953933,0.0
1709637587.3268604,187,1709637587,329533339,,-1.1967025094139863,-1.1391062648861159,0.0,0.0,0.0,-1.1121143269910665,0.40088484425283805,-0.7687859503445149,0.0,0.867029697183863,0.0,0.0,0.0,0.8668202766122958,0.01905528411029997,0.0,0.0,0.0,0.0,0.0,0.0,0.4725113730881405,0.0
1709637587.3370938,188,1709637587,329406023,,-1.189215616206879,-1.1425427400656647,0.0,0.0,0.0,-1.1070943947375638,0.40529609610323786,-0.76784856019107,0.0,0.8682490062787427,0.0,0.0,0.0,0.8680395923188642,0.019068378822654244,0.0,0.0,0.0,0.0,0.0,0.0,0.47319922801790876,0.0
1709637587.3471863,189,1709637587,347726822,,-1.1944747350213827,-1.140719620421372,0.0,0.0,0.0,-1.1009950713746302,0.41019154981933764,-0.7657839116862178,0.0,0.8687244136897703,0.0,0.0,0.0,0.8685150049872359,0.019073359763207495,0.0,0.0,0.0,0.0,0.0,0.0,0.47347497075783385,0.0
1709637587.3673778,190,1709637587,356151104,,-1.1913465788918665,-1.1459351829866382,0.0,0.0,0.0,-1.0946457947353305,0.4156269231078926,-0.764262338107164,0.0,0.8699670457328618,0.0,0.0,0.0,0.8697576419110794,0.019086775485703335,0.0,0.0,0.0,0.0,0.0,0.0,0.47415960240674465,0.0
1709637587.3673778,191,1709637587,370462418,,-1.1871225446728488,-1.1536583588814202,0.0,0.0,0.0,-1.0898480225194962,0.41999655112818823,-0.7635753550482342,0.0,0.8714610867942467,0.0,0.0,0.0,0.8712516336843827,0.019105407582769036,0.0,0.0,0.0,0.0,0.0,0.0,0.47496333480261616,0.0
1709637587.3774655,192,1709637587,385351896,,-1.1813590831051168,-1.1594931560043102,0.0,0.0,0.0,-1.084326106655201,0.4248935859455897,-0.7625083394706356,0.0,0.8728994942947145,0.0,0.0,0.0,0.872690024668093,0.01912192419113475,0.0,0.0,0.0,0.0,0.0,0.0,0.47573968512818576,0.0
1709637587.407773,193,1709637587,391662121,,-1.1821378936222369,-1.1636837229295385,0.0,0.0,0.0,-1.078648994219536,0.429756274153868,-0.761066195818045,0.0,0.8740207146238385,0.0,0.0,0.0,0.8738112426507582,0.01913430972633177,0.0,0.0,0.0,0.0,0.0,0.0,0.4763456172547898,0.0
1709637587.407773,194,1709637587,397673845,,-1.1785554247169523,-1.1680495482925723,0.0,0.0,0.0,-1.0721958367426196,0.43529013878200395,-0.7594078420611442,0.0,0.8753158147233604,0.0,0.0,0.0,0.8751063476227261,0.01914825984868248,0.0,0.0,0.0,0.0,0.0,0.0,0.47704645833766907,0.0
1709637587.407773,195,1709637587,412536383,,-1.1741372955281242,-1.1757146974752954,0.0,0.0,0.0,-1.0673740975947736,0.4396589377669889,-0.7585614446475728,0.0,0.8767641911393335,0.0,0.0,0.0,0.8765547341555917,0.01916363466645946,0.0,0.0,0.0,0.0,0.0,0.0,0.47783057363228937,0.0
1709637587.4279425,196,1709637587,427345991,,-1.173650681140117,-1.1766702498505481,0.0,0.0,0.0,-1.0609418127127177,0.4450152277659148,-0.7565660855101718,0.0,0.8777418724703371,0.0,0.0,0.0,0.8775324242640239,0.01917391595472159,0.0,0.0,0.0,0.0,0.0,0.0,0.4783603231987977,0.0
1709637587.438081,197,1709637587,427942514,,-1.1691423700025771,-1.1842927949803947,0.0,0.0,0.0,-1.0561154245069817,0.4493804757069847,-0.755649824519556,0.0,0.8791754484988031,0.0,0.0,0.0,0.878966009179236,0.01918916232145207,0.0,0.0,0.0,0.0,0.0,0.0,0.4791357026200054,0.0
1709637587.4481664,198,1709637587,445454121,,-1.1645637309857986,-1.1919496617882643,0.0,0.0,0.0,-1.0512535032936967,0.45383676132700634,-0.7547954546415627,0.0,0.880729234373056,0.0,0.0,0.0,0.8805197554025688,0.01920793130844293,0.0,0.0,0.0,0.0,0.0,0.0,0.4799638404601924,0.0
1709637587.458249,199,1709637587,459332705,,-1.1544875666322723,-1.2021431179888067,0.0,0.0,0.0,-1.042627853766432,0.4616338747248729,-0.7530317117163948,0.0,0.8832681320776965,0.0,0.0,0.0,0.8830586506957928,0.01923571093952114,0.0,0.0,0.0,0.0,0.0,0.0,0.4813269956074929,0.0
1709637587.468341,200,1709637587,458249092,,-1.1634977464322238,-1.1975820201171494,0.0,0.0,0.0,-1.038551058105677,0.46469151020600574,-0.7511266470412077,0.0,0.8832493643093695,0.0,0.0,0.0,0.8830398515814833,0.019236945491869138,0.0,0.0,0.0,0.0,0.0,0.0,0.4813091973557395,0.0
1709637587.468341,201,1709637587,475746155,,-1.159293508095808,-1.2043450293663602,0.0,0.0,0.0,-1.0342117072406196,0.46871177572526035,-0.7503562074162698,0.0,0.8847175632435783,0.0,0.0,0.0,0.8845080258118634,0.019254064143839247,0.0,0.0,0.0,0.0,0.0,0.0,0.4820909656799054,0.0
1709637587.4885228,202,1709637587,483640432,,-1.1563197957959683,-1.2042714527183307,0.0,0.0,0.0,-1.0259224149870065,0.47559767318340257,-0.7475431402448204,0.0,0.8860100977215518,0.0,0.0,0.0,0.8858005553689768,0.019268351578844045,0.0,0.0,0.0,0.0,0.0,0.0,0.4827816980558414,0.0
1709637587.4986143,203,1709637587,488522768,,-1.15022745637187,-1.210108126211027,0.0,0.0,0.0,-1.0204243237710116,0.4805476871206309,-0.7462657233958969,0.0,0.8876027318077548,0.0,0.0,0.0,0.8873932036019693,0.019285012668470755,0.0,0.0,0.0,0.0,0.0,0.0,0.4836380393993427,0.0
1709637587.50871,204,1709637587,509286165,,-1.1453552771615145,-1.2176340937767192,0.0,0.0,0.0,-1.0155392921504922,0.4850489186705278,-0.7452668132276883,0.0,0.8892103667872987,0.0,0.0,0.0,0.8890008611483923,0.01930143205617939,0.0,0.0,0.0,0.0,0.0,0.0,0.48450466311029644,0.0
1709637587.5187993,205,1709637587,513605833,,-1.1512725513216535,-1.2184429667465122,0.0,0.0,0.0,-1.0094782093586003,0.4901230274328597,-0.7431934485467467,0.0,0.8902567517198382,0.0,0.0,0.0,0.8900472638418016,0.019311968063356062,0.0,0.0,0.0,0.0,0.0,0.0,0.48506901042848144,0.0
1709637587.5289285,206,1709637587,531399250,,-1.1452584187166888,-1.2212566270198877,0.0,0.0,0.0,-1.0016704536596024,0.4966835735259345,-0.7405258688399303,0.0,0.8916687359281058,0.0,0.0,0.0,0.891459272540707,0.019326148939185633,0.0,0.0,0.0,0.0,0.0,0.0,0.4858322284728348,0.0
1709637587.5390952,207,1709637587,539417028,,-1.1389648719118008,-1.2305783252713247,0.0,0.0,0.0,-0.9955422963893931,0.5022964173718683,-0.7391044173205921,0.0,0.8936313728867322,0.0,0.0,0.0,0.8934219479095222,0.01934563519197281,0.0,0.0,0.0,0.0,0.0,0.0,0.48689365955888253,0.0
1709637587.5390952,208,1709637587,543362856,,-1.134921300469281,-1.236499533733071,0.0,0.0,0.0,-0.9916114250292778,0.5063163611512009,-0.7379389161737988,0.0,0.89493580863275,0.0,0.0,0.0,0.8947159558738746,0.0198358230949188,0.0,0.0,0.0,0.0,0.0,0.0,0.4933800193818826,0.0
1709637587.5491824,209,1709637587,549182415,,-1.1274936902992128,-1.2407386365693636,0.0,0.0,0.0,-0.9857986750866159,0.5115215314268033,-0.7361928059633033,0.0,0.8964564265291115,0.0,0.0,0.0,0.8962346667580706,0.019938574833580348,0.0,0.0,0.0,0.0,0.0,0.0,0.49707434683434737,0.0
1709637587.5592682,210,1709637587,559268236,,-1.1223110818873419,-1.2481575253649946,0.0,0.0,0.0,-0.9807697784275655,0.516178162696078,-0.7349542737738071,0.0,0.8981078332709735,0.0,0.0,0.0,0.8978853449699045,0.019989684113524125,0.0,0.0,0.0,0.0,0.0,0.0,0.5000179454644719,0.0
1709637587.5895288,211,1709637587,572213411,,-1.1278450293194944,-1.2427986339397312,0.0,0.0,0.0,-0.9703890596938215,0.5244788595118303,-0.7305366024670926,0.0,0.8993118489261627,0.0,0.0,0.0,0.8990891416574966,0.020012920141226367,0.0,0.0,0.0,0.0,0.0,0.0,0.5023823463394079,0.0
1709637587.5996053,212,1709637587,595805645,,-1.1186944294965109,-1.2554282277609334,0.0,0.0,0.0,-0.9616643798462154,0.53245518029233,-0.728212104937554,0.0,0.9021094106579981,0.0,0.0,0.0,0.9018867994008642,0.0200397071881291,0.0,0.0,0.0,0.0,0.0,0.0,0.505211848975691,0.0
1709637587.6198351,213,1709637587,599646091,,-1.1146434905550564,-1.2551414291445717,0.0,0.0,0.0,-0.9536719741588353,0.5390446669756555,-0.7250224850767537,0.0,0.9034526865651387,0.0,0.0,0.0,0.9032301616047239,0.020050736377276123,0.0,0.0,0.0,0.0,0.0,0.0,0.506394945203006,0.0
1709637587.6198351,214,1709637587,621575117,,-1.1092052645219335,-1.2624173367274047,0.0,0.0,0.0,-0.9485789386630252,0.5436711511371688,-0.7235562836367402,0.0,0.9050480739546519,0.0,0.0,0.0,0.9048256407405804,0.02006429733191145,0.0,0.0,0.0,0.0,0.0,0.0,0.5075757168902004,0.0
